station,state,latitude,longitude,elevation,month,minimum temperature (F),maximum temperature (F),average temperature (F),average daily wind speed (miles per hour),direction of fastest 5 second wind (degrees),fastest 5 second wind speed (miles per hour),snowfall (inch),snow depth (inch),precipitation (inch)
DENVER INTL AP,CO,39.8328,-104.6575,1650.2,January,-1.84,5.18,3.56,4.921268,360,10.961006,2.5984266,3.93701,0.24015761
PADUCAH,KY,37.0683,-88.7719,119.5,January,14.18,21.2,18.32,9.618842,360,19.908766,0,0,0
PADUCAH,KY,37.0683,-88.7719,119.5,August,64.94,84.92,73.94,6.039738,360,21.922012,0,0,0
AUGUSTA BUSH FLD AP,GA,33.3644,-81.9633,40.2,January,30.2,44.96,40.82,11.408394,360,29.974996,0,0,0.35039389
CROSSVILLE MEM AP,TN,35.9508,-85.0814,569.1,January,8.24,19.22,13.64,8.724066,360,23.935258,0,0,0
HUNTSVILLE INTL AP,AL,34.6439,-86.7861,190.2,January,30.2,42.08,35.06,6.487126,360,19.908766,0,0,0
HUNTSVILLE INTL AP,AL,34.6439,-86.7861,190.2,January,14.18,28.22,21.02,11.1847,360,27.066974,0,0,0
GREER,SC,34.8831,-82.2203,286.5,January,39.02,55.04,51.62,8.500372,360,31.093466,0,0,0
CLARKSVILLE OUTLAW AP,TN,36.6239,-87.4194,170.7,January,20.12,29.12,26.42,9.171454,360,18.119214,0,0,0
LONGVIEW E TX RGNL AP,TX,32.3847,-94.7117,111.3,January,33.08,42.98,42.26,6.487126,360,19.908766,0,0,0
COLLEGE STN,TX,30.5892,-96.3647,93,January,37.04,64.04,47.12,9.618842,360,31.093466,0,0,0
COLLEGE STN,TX,30.5892,-96.3647,93,January,17.24,42.08,26.78,9.395148,360,27.066974,0,0,0
COLLEGE STN,TX,30.5892,-96.3647,93,August,75.92,93.02,82.04,5.816044,360,16.105968,0,0,0
DALLAS FT WORTH AP,TX,32.8978,-97.0189,170.7,January,32,39.92,36.68,8.500372,360,23.040482,0,0,0
WICHITA,KS,37.6544,-97.4425,406.9,January,20.12,39.92,34.88,19.685072,360,40.936002,0,0,0
LAKE CHARLES,LA,30.125,-93.2158,4,January,30.2,44.96,41.36,17.000744,360,38.02798,0,0,0.24015761
LAKE CHARLES,LA,30.125,-93.2158,4,January,23.18,41,31.28,12.974252,360,36.90951,0,0,0
JACKSON INTL AP,MS,32.3206,-90.0778,100.6,January,33.98,57.02,50.72,9.171454,360,25.053728,0,0,0
JACKSON INTL AP,MS,32.3206,-90.0778,100.6,January,33.08,50,40.82,4.697574,360,21.922012,0,0,0.01181103
JACKSON INTL AP,MS,32.3206,-90.0778,100.6,January,17.24,33.08,24.44,12.079476,360,29.974996,0,0.9842525,0
ISLIP LI MACARTHUR AP,NY,40.7939,-73.1017,25.6,January,20.12,25.16,23.54,13.645334,360,29.08022,9.6850446,1.181103,0.51968532
ORLANDO INTL AP,FL,28.4339,-81.325,27.4,January,35.96,55.04,44.42,15.882274,360,29.08022,0,0,0
TAMPA INTL AP,FL,27.9619,-82.5403,5.8,January,39.92,73.94,65.66,13.645334,360,29.08022,0,0,0.16929143
TAMPA INTL AP,FL,27.9619,-82.5403,5.8,August,78.98,93.02,85.28,5.144962,360,18.119214,0,0,0
VERO BEACH INTL AP,FL,27.6531,-80.2428,8.5,January,41,62.06,49.64,16.77705,360,35.119958,0,0,0
GALVESTON SCHOLES FLD,TX,29.2733,-94.8592,1.5,January,50,64.04,58.28,12.750558,360,34.001488,0,0,0
GALVESTON SCHOLES FLD,TX,29.2733,-94.8592,1.5,January,35.06,50,46.58,24.60634,360,40.936002,0,0,0.16929143
GALVESTON SCHOLES FLD,TX,29.2733,-94.8592,1.5,August,75.02,84.92,81.86,7.605596,360,25.948504,0,0,0.94881941
CORPUS CHRISTI,TX,27.7839,-97.5108,13.7,January,31.1,51.98,46.04,21.922012,360,38.02798,0,0,0
HOUSTON INTERCONT AP,TX,29.98,-95.36,29,January,26.24,44.06,40.46,16.329662,360,31.093466,0,0,0.27165369
NORFOLK INTL AP,VA,36.9033,-76.1922,9.1,August,71.96,77,75.02,9.842536,360,27.066974,0,0,0.94881941
ELIZABETH CITY CGAS,NC,36.2606,-76.175,4,January,33.08,44.06,41.18,12.30317,360,23.040482,0.1968505,0,0.16141741
HATTIESBURG CHAIN MUNI AP,MS,31.2819,-89.2531,46,January,20.12,42.98,29.12,3.802798,360,14.092722,0,0,0
MERIDIAN KEY FLD,MS,32.3347,-88.7442,89.6,January,35.06,57.02,52.88,9.618842,360,25.948504,0,0,0
MERIDIAN KEY FLD,MS,32.3347,-88.7442,89.6,January,32,53.96,42.26,4.697574,360,17.000744,0,0,0.0393701
MERIDIAN KEY FLD,MS,32.3347,-88.7442,89.6,January,27.14,39.92,37.4,13.869028,360,25.948504,0.787402,0,0.55905542
MERIDIAN KEY FLD,MS,32.3347,-88.7442,89.6,January,20.12,35.96,27.32,12.079476,360,27.96175,0,0,0
ATLANTA HARTSFIELD INTL AP,GA,33.63,-84.4417,307.8,August,69.98,75.92,73.76,3.579104,360,17.000744,0,0,1.11811084
CHATTANOOGA LOVELL AP,TN,35.0311,-85.2014,204.5,January,24.26,35.06,32.9,11.855782,360,21.922012,0.3149608,0,0.01968505
CHATTANOOGA LOVELL AP,TN,35.0311,-85.2014,204.5,January,18.14,30.2,24.08,13.197946,360,27.96175,0,1.181103,0
COLUMBIA,SC,33.9486,-81.1186,70.4,January,29.12,39.92,37.22,8.94776,360,29.974996,0.1181103,0,0.44094512
JACKSONVILLE,FL,30.4844,-81.7019,10.1,January,26.24,46.94,36.32,8.500372,360,21.027236,0,0,0
KNOXVILLE MCGHEE TYSON AP,TN,35.8181,-83.9858,293.2,January,14.18,25.16,20.12,7.605596,360,23.040482,1.2992133,1.968505,0.1181103
MOBILE,AL,30.6794,-88.2397,63.4,January,32,53.06,46.4,14.763804,360,31.093466,0,0,0.85039416
NASHVILLE INTL AP,TN,36.1189,-86.6892,182.9,January,11.12,23.18,16.88,9.395148,360,21.922012,0,0,0
GREENVILLE ASOS,MS,33.4825,-90.9853,39,January,32,48.02,44.24,12.974252,360,29.974996,0,0,0
SHREVEPORT,LA,32.4506,-93.8411,83.2,January,19.22,39.02,26.96,5.59235,360,19.01399,0,0,0
ABILENE RGNL AP,TX,32.4106,-99.6822,545.6,January,14.18,25.16,20.84,12.750558,360,27.96175,0,0,0.01181103
ABILENE RGNL AP,TX,32.4106,-99.6822,545.6,August,71.96,87.08,77.18,7.605596,360,18.119214,0,0,0.01181103
FT SMITH RGNL AP,AR,35.3331,-94.3625,136.9,January,25.16,41,33.26,6.71082,360,21.027236,0,0,0
FT SMITH RGNL AP,AR,35.3331,-94.3625,136.9,January,22.1,35.06,33.44,10.737312,360,23.040482,0,0,0
FT SMITH RGNL AP,AR,35.3331,-94.3625,136.9,August,69.98,87.08,78.62,6.934514,360,27.96175,0,0,2.66929278
OKLAHOMA CITY WILL ROGERS AP,OK,35.3889,-97.6006,391.7,January,15.26,26.24,24.26,17.000744,360,31.093466,0.1181103,0,0.01181103
PONCA CITY MUNI AP,OK,36.7367,-97.1019,304.8,January,7.16,23.18,17.06,5.59235,360,19.01399,0,0,0
PONCA CITY MUNI AP,OK,36.7367,-97.1019,304.8,August,64.94,95,78.8,3.579104,360,35.119958,0,0,0.09055123
GREENWOOD LEFLORE AP,MS,33.4964,-90.0867,40.5,January,51.08,66.92,60.8,7.605596,360,27.066974,0,0,0
GREENWOOD LEFLORE AP,MS,33.4964,-90.0867,40.5,January,30.2,50,46.76,8.052984,360,25.053728,0,0,0
CONCORDIA MUNI AP,KS,39.5514,-97.6508,447.8,January,7.16,19.22,13.64,8.276678,360,19.01399,0.5118113,0,0.03149608
DODGE CITY,KS,37.7608,-99.9683,789.4,January,11.12,31.1,26.96,16.77705,360,35.119958,0,0,0
ST LOUIS LAMBERT INTL AP,MO,38.7525,-90.3736,161.8,August,64.94,80.96,71.6,6.71082,360,21.027236,0,0,0
TOPEKA MUNI AP,KS,39.0725,-95.6261,267,August,53.06,78.98,68.18,2.908022,360,19.01399,0,0,0
TOPEKA MUNI AP,KS,39.0725,-95.6261,267,August,64.94,75.02,68.72,4.026492,360,14.092722,0,0,0
HARTFORD BRADLEY INTL AP,CT,41.9381,-72.6825,57.9,January,18.14,21.2,20.3,9.171454,360,16.105968,3.3070884,3.1102379,0.22834658
BURLINGTON INTL AP,VT,44.4683,-73.15,100.6,August,60.98,84.92,72.86,3.131716,360,12.974252,0,0,0
PROVIDENCE T F GREEN AP,RI,41.7219,-71.4325,18.3,January,18.14,24.26,22.64,14.316416,360,36.014734,10.7086672,1.181103,0.5511814
CLEVELAND,OH,41.4131,-81.86,232.6,August,62.06,80.96,72.86,7.605596,360,19.01399,0,0,0
AKRON CANTON RGNL AP,OH,40.9167,-81.4333,368.2,August,60.98,80.06,69.08,4.921268,360,16.105968,0,0,0
FARGO HECTOR INTL AP,ND,46.9253,-96.8111,274.3,August,55.94,78.98,66.74,3.579104,360,14.092722,0,0,0
GRAND FORKS INTL AP,ND,47.9428,-97.1839,256.6,January,7.16,17.24,15.8,16.105968,360,38.02798,4.0944904,7.086618,0.20078751
GRAND FORKS INTL AP,ND,47.9428,-97.1839,256.6,January,6.26,35.06,33.08,16.553356,360,40.041226,0,3.93701,0
GRAND FORKS INTL AP,ND,47.9428,-97.1839,256.6,August,55.04,75.02,63.14,10.289924,360,23.935258,0,0,0.05118113
GRAND FORKS INTL AP,ND,47.9428,-97.1839,256.6,August,51.98,80.06,66.74,2.908022,360,12.974252,0,0,0
LA CROSSE MUNI AP,WI,43.8789,-91.2528,198.7,August,57.02,82.94,69.62,5.816044,360,17.000744,0,0,0
ROCHESTER INTL AP,MN,43.9042,-92.4917,397.5,August,60.08,80.06,69.08,7.158208,360,16.105968,0,0,0
ST CLOUD RGNL AP,MN,45.5433,-94.0514,310.3,January,22.1,30.2,24.44,7.82929,360,23.040482,1.181103,1.968505,0.05118113
ST CLOUD RGNL AP,MN,45.5433,-94.0514,310.3,August,51.08,60.08,56.84,10.289924,360,31.093466,0,0,1.40157556
ABERDEEN,SD,45.4558,-98.4131,396.8,August,60.08,86,74.66,8.052984,360,21.027236,0,0,0
GRAND ISLAND AP,NE,40.9611,-98.3136,560.8,August,57.92,78.08,66.2,5.816044,360,19.01399,0,0,0
LINCOLN MUNI AP,NE,40.8508,-96.7475,362.7,January,30.2,37.94,37.04,10.513618,360,25.948504,0,0,0
LINCOLN MUNI AP,NE,40.8508,-96.7475,362.7,August,64.94,87.08,75.2,5.59235,360,29.08022,0,0,0
LINCOLN MUNI AP,NE,40.8508,-96.7475,362.7,August,64.04,87.98,75.56,4.026492,360,12.079476,0,0,0
LINCOLN MUNI AP,NE,40.8508,-96.7475,362.7,August,55.94,77,73.94,13.42164,360,31.988242,0,0,0
OMAHA EPPLEY AIRFIELD,NE,41.3103,-95.8992,299.3,January,5.18,21.2,11.66,6.71082,360,23.040482,0,0,0
OMAHA EPPLEY AIRFIELD,NE,41.3103,-95.8992,299.3,August,62.96,87.08,74.66,4.47388,360,16.105968,0,0,0
SIOUX CITY GATEWAY AP,IA,42.3914,-96.3792,333.8,August,60.08,86,70.34,5.368656,360,27.96175,0,0,0
KAHULUI AP,HI,20.8997,-156.4286,15.5,January,66.92,78.08,73.22,9.171454,360,19.01399,0,0,0
CHILDRESS MUNI AP,TX,34.4272,-100.2831,594.7,January,31.1,53.06,42.62,14.316416,360,34.001488,0,0,0
LUBBOCK,TX,33.6542,-101.8136,993.3,August,64.94,82.04,74.12,4.697574,360,29.08022,0,0,1.75984347
LUBBOCK,TX,33.6542,-101.8136,993.3,August,68,87.08,75.56,7.381902,360,23.935258,0,0,0
AMARILLO,TX,35.2333,-101.7089,1093.3,August,66.02,77,72.86,12.30317,360,29.08022,0,0,0
ALBUQUERQUE INTL AP,NM,35.0419,-106.6156,1618.5,January,15.26,35.96,24.26,4.026492,360,14.987498,0,0,0
GRAND JUNCTION WALKER FLD,CO,39.1342,-108.54,1480.7,August,68,96.98,83.12,13.197946,360,38.922756,0,0,0
ELY YELLAND FLD AP,NV,39.2953,-114.8467,1908.7,January,-19.84,35.96,27.32,14.316416,360,36.014734,2.9921276,3.93701,0.35826791
ELY YELLAND FLD AP,NV,39.2953,-114.8467,1908.7,August,59,91.04,75.56,8.276678,360,38.922756,0,0,0
ELY YELLAND FLD AP,NV,39.2953,-114.8467,1908.7,August,50,87.08,69.44,8.500372,360,36.014734,0,0,0.01181103
BISHOP AP,CA,37.3711,-118.3581,1250.3,January,18.14,41,31.82,4.250186,360,23.040482,0,0,0
BISHOP AP,CA,37.3711,-118.3581,1250.3,August,59,93.02,75.74,7.605596,360,27.96175,0,0,0
PHOENIX SKY HARBOR INTL AP,AZ,33.4278,-112.0039,337.4,August,84.92,111.02,97.88,5.59235,360,17.000744,0,0,0
BISMARCK,ND,46.7708,-100.7603,505.4,August,62.06,87.08,77.36,7.82929,360,21.027236,0,0,0
CHEYENNE,WY,41.1519,-104.8061,1867.8,January,7.16,31.1,25.16,8.052984,360,42.949248,1.4960638,0,0.0787402
CHEYENNE,WY,41.1519,-104.8061,1867.8,August,55.94,80.96,68.54,12.30317,360,31.988242,0,0,0
CHEYENNE,WY,41.1519,-104.8061,1867.8,August,53.06,82.04,67.82,8.724066,360,36.014734,0,0,0.75196891
VALENTINE MILLER FLD,NE,42.8783,-100.55,789.4,January,25.16,37.04,32.36,8.500372,360,23.040482,0.5118113,1.181103,0.01968505
VALENTINE MILLER FLD,NE,42.8783,-100.55,789.4,August,57.02,80.96,67.64,4.921268,360,21.922012,0,0,0.22047256
BILLINGS LOGAN INTL AP,MT,45.8069,-108.5422,1091.5,January,-5.8,7.16,6.08,6.71082,360,19.908766,1.6929143,9.842525,0.0787402
BILLINGS LOGAN INTL AP,MT,45.8069,-108.5422,1091.5,August,55.94,69.98,68.36,8.500372,360,34.001488,0,0,0
RAPID CITY RGNL AP,SD,44.0433,-103.0536,963.2,January,9.14,27.14,12.02,11.408394,360,40.041226,0.1968505,3.93701,0.01181103
RAPID CITY RGNL AP,SD,44.0433,-103.0536,963.2,January,21.2,33.08,31.28,11.1847,360,29.08022,1.1023628,1.181103,0.05118113
RAPID CITY RGNL AP,SD,44.0433,-103.0536,963.2,August,48.02,71.96,59.9,10.06623,360,29.08022,0,0,0
HELENA RGNL AP,MT,46.6056,-111.9636,1166.8,August,55.94,69.98,64.76,8.724066,360,21.922012,0,0,0
MISSOULA INTL AP,MT,46.9208,-114.0925,972.9,August,51.98,93.92,73.94,4.250186,360,25.053728,0,0,0
PENDLETON,OR,45.6906,-118.8528,461.8,August,62.96,100.94,81.68,7.82929,360,21.922012,0,0,0
POCATELLO RGNL AP,ID,42.9203,-112.5711,1364.9,January,-15.88,18.14,-6.88,5.59235,360,16.105968,1.2992133,12.992133,0.1181103
POCATELLO RGNL AP,ID,42.9203,-112.5711,1364.9,August,57.92,86,70.34,6.039738,360,17.000744,0,0,0
EUREKA WFO WOODLEY ISLAND,CA,40.8097,-124.1603,6.1,January,39.02,42.98,39.2,4.921268,360,12.974252,0,0,1.29133928
RED BLUFF MUNI AP,CA,40.1519,-122.2536,107.6,January,26.24,46.94,35.96,5.59235,360,17.000744,0,0,0
EUGENE MAHLON SWEET AP,OR,44.1278,-123.2206,107.6,January,29.12,37.94,35.06,5.816044,360,18.119214,0,0,0.05905515
EUGENE MAHLON SWEET AP,OR,44.1278,-123.2206,107.6,January,21.2,33.98,29.84,12.079476,360,31.093466,0.5905515,0.9842525,0.0787402
EUGENE MAHLON SWEET AP,OR,44.1278,-123.2206,107.6,January,24.26,29.12,27.5,7.381902,360,16.105968,4.4881914,5.0000027,0.61811057
EUGENE MAHLON SWEET AP,OR,44.1278,-123.2206,107.6,August,51.98,98.06,74.84,7.605596,360,31.093466,0,0,0
OLYMPIA AP,WA,46.9733,-122.9033,57.3,August,55.94,96.08,74.12,3.35541,360,14.092722,0,0,0
SALEM MCNARY FLD,OR,44.905,-123.0011,62.5,January,39.92,46.94,42.62,3.802798,360,14.092722,0,0,0
SEATTLE TACOMA INTL AP,WA,47.4444,-122.3139,112.8,January,33.98,44.06,40.64,11.1847,360,25.053728,0,0,0
REDDING MUNI AP,CA,40.5175,-122.2986,151.5,January,33.08,41,38.48,2.013246,360,14.092722,2.9921276,0,0.98031549
KING SALMON,AK,58.6794,-156.6294,19.2,January,17.24,33.08,28.4,4.921268,360,14.987498,0,0,0
KING SALMON,AK,58.6794,-156.6294,19.2,January,11.12,24.26,19.22,4.250186,360,10.961006,0,0,0
KING SALMON,AK,58.6794,-156.6294,19.2,January,7.16,19.22,16.34,9.842536,360,25.053728,0,0,0
ANCHORAGE INTL AP,AK,61.1689,-150.0278,36.6,January,10.22,20.12,14.36,14.316416,360,35.119958,0,9.055123,0
BETTLES AP,AK,66.9161,-151.5089,195.7,January,-27.76,-14.8,-19.84,1.789552,360,8.94776,0,20.078751,0
NOME MUNI AP,AK,64.5111,-165.44,4,January,-0.76,4.1,4.82,0.447388,360,8.052984,0,17.9921357,0
ALABASTER SHELBY CO AP,AL,33.1783,-86.7817,172.2,January,18.14,35.96,25.7,3.579104,360,17.000744,0,0,0
COLORADO SPRINGS MUNI AP,CO,38.81,-104.6883,1884,January,1.22,8.24,6.08,6.71082,360,19.01399,3.1102379,1.181103,0.16929143
COLORADO SPRINGS MUNI AP,CO,38.81,-104.6883,1884,August,60.08,80.96,70.16,9.618842,360,31.988242,0,0,0
COLORADO SPRINGS MUNI AP,CO,38.81,-104.6883,1884,August,55.94,62.96,59.18,7.82929,360,25.948504,0,0,0.77952798
DALHART MUNI AP,TX,36.0167,-102.55,1216.2,August,66.02,84.02,74.84,8.500372,360,29.08022,0,0,0
BALTIMORE WASH INTL AP,MD,39.1667,-76.6833,47.5,January,24.26,33.08,30.38,7.605596,360,23.935258,0.1181103,0,0.01181103
WASHINGTON DC DULLES AP,VA,38.9408,-77.4636,88.4,January,24.26,31.1,29.48,9.618842,360,21.922012,0.1181103,0,0.01181103
WALLOPS ISLAND FLIGHT FAC,VA,37.9406,-75.4631,11.6,January,18.14,30.2,25.7,14.316416,360,33.106712,10.0000054,3.93701,0.77165396
EVANSVILLE REGIONAL AP,IN,38.0442,-87.5206,121.9,January,14.18,25.16,23.72,6.934514,360,17.000744,0.393701,0,0.05118113
EVANSVILLE REGIONAL AP,IN,38.0442,-87.5206,121.9,January,5.18,20.12,12.2,6.039738,360,18.119214,0,0,0
INDIANAPOLIS,IN,39.7075,-86.2803,240.8,August,66.02,80.06,70.88,8.724066,360,29.08022,0,0,0
LEXINGTON BLUEGRASS AP,KY,38.0408,-84.6058,298.7,August,60.08,82.04,70.16,6.263432,360,18.119214,0,0,0
LOUISVILLE INTL AP,KY,38.1811,-85.7392,148.7,January,12.2,20.12,17.42,9.618842,360,19.01399,0,1.968505,0
LOUISVILLE INTL AP,KY,38.1811,-85.7392,148.7,January,9.14,20.12,13.1,9.842536,360,19.01399,0,0,0
LOUISVILLE INTL AP,KY,38.1811,-85.7392,148.7,August,64.94,84.92,74.84,7.605596,360,19.01399,0,0,0
TUPELO RGNL AP,MS,34.2622,-88.7714,110,January,51.08,59,53.24,3.35541,360,6.934514,0,0,0.09055123
GULFPORT - BILOXI AP,MS,30.4119,-89.0808,12.8,January,25.16,41,33.44,16.553356,360,36.014734,0,0,0
ASTORIA RGNL AP,OR,46.1569,-123.8825,2.7,January,35.96,46.04,41.54,3.131716,360,16.105968,0,0,0
BRIDGEPORT SIKORSKY MEM AP,CT,41.1583,-73.1289,1.5,January,21.2,25.16,24.08,13.42164,360,29.08022,5.7086645,0,0.22047256
DETROIT METRO AP,MI,42.2314,-83.3308,192.3,August,66.02,89.06,76.28,7.605596,360,25.948504,0,0,0.25984266
ALPENA CO RGNL AP,MI,45.0717,-83.5644,208.5,August,55.94,73.94,64.04,5.368656,360,25.053728,0,0,0
DUBUQUE RGNL AP,IA,42.3978,-90.7036,321.9,August,53.06,71.96,60.62,14.092722,360,38.922756,0,0,0
DENVER INTL AP,CO,39.8328,-104.6575,1650.2,January,4.1,12.2,11.12,8.724066,350,23.040482,1.4960638,0,0.09842525
ASHEVILLE RGNL AP,NC,35.4319,-82.5375,645.3,January,25.16,35.06,32.72,12.750558,350,27.96175,4.8031522,0,0.33858286
ASHEVILLE RGNL AP,NC,35.4319,-82.5375,645.3,August,60.08,82.04,70.52,7.605596,350,21.027236,0,0,0
PADUCAH,KY,37.0683,-88.7719,119.5,January,18.14,28.22,26.06,8.94776,350,19.01399,0.1968505,0,0.01968505
PADUCAH,KY,37.0683,-88.7719,119.5,January,7.16,24.26,14.36,6.263432,350,19.908766,0,0,0
AUGUSTA BUSH FLD AP,GA,33.3644,-81.9633,40.2,January,24.26,44.06,32.9,4.47388,350,16.105968,0,0,0
SAVANNAH INTL AP,GA,32.13,-81.21,14,August,75.02,93.02,82.04,7.158208,350,27.96175,0,0,0
HUNTSVILLE INTL AP,AL,34.6439,-86.7861,190.2,January,31.1,55.04,48.2,10.513618,350,25.053728,0,0,0
HUNTINGTON TRI STATE AP,WV,38.365,-82.555,251.2,August,62.06,73.94,66.2,3.802798,350,14.092722,0,0,0.50000027
BECKLEY RALEIGH CO AP,WV,37.7836,-81.1231,766.3,January,14.18,21.2,19.76,7.158208,350,19.908766,0.9842525,3.93701,0
BECKLEY RALEIGH CO AP,WV,37.7836,-81.1231,766.3,August,57.92,80.96,69.26,2.23694,350,14.987498,0,0,0
BECKLEY RALEIGH CO AP,WV,37.7836,-81.1231,766.3,August,55.94,73.94,66.38,6.487126,350,19.908766,0,0,0.01968505
CLARKSVILLE OUTLAW AP,TN,36.6239,-87.4194,170.7,January,13.1,21.2,19.22,13.197946,350,25.053728,0,0,0
COLLEGE STN,TX,30.5892,-96.3647,93,January,37.04,46.94,42.98,7.381902,350,23.040482,0,0,0
COLLEGE STN,TX,30.5892,-96.3647,93,January,23.18,37.04,33.62,18.566602,350,36.90951,0,0,0
WICHITA,KS,37.6544,-97.4425,406.9,January,39.92,57.92,49.64,10.06623,350,29.974996,0,0,0.05118113
JACKSON INTL AP,MS,32.3206,-90.0778,100.6,January,51.98,73.94,61.52,5.816044,350,19.01399,0,0,0
JACKSON INTL AP,MS,32.3206,-90.0778,100.6,August,73.04,84.92,77.36,2.013246,350,8.94776,0,0,0.01968505
COLUMBIA RGNL AP,MO,38.8169,-92.2183,272.2,August,64.04,89.06,77,5.368656,350,21.922012,0,0,0
KANSAS CITY INTL AP,MO,39.2972,-94.7306,306.3,August,51.98,78.08,66.38,4.921268,350,18.119214,0,0,0
ISLIP LI MACARTHUR AP,NY,40.7939,-73.1017,25.6,January,25.16,37.04,30.92,9.395148,350,25.948504,0,0,0
ORLANDO INTL AP,FL,28.4339,-81.325,27.4,January,42.98,73.04,64.76,14.763804,350,31.093466,0,0,0.53149635
MIAMI INTL AP,FL,25.7906,-80.3164,8.8,January,51.08,69.98,59.18,12.974252,350,35.119958,0,0,0
WEST PALM BEACH INTL AP,FL,26.6847,-80.0994,5.8,January,44.06,66.02,53.78,17.448132,350,36.90951,0,0,0
NEW ORLEANS INTL AP,LA,29.9933,-90.2511,1.2,January,27.14,39.02,33.44,15.211192,350,35.119958,0,0,0
HOUSTON HOBBY AP,TX,29.6381,-95.2819,13.4,August,77,95,85.46,4.250186,350,23.935258,0,0,0
BROWNSVILLE,TX,25.9156,-97.4186,7,January,35.96,64.94,46.94,7.605596,350,19.908766,0,0,0
CORPUS CHRISTI,TX,27.7839,-97.5108,13.7,January,26.24,46.04,34.16,15.211192,350,35.119958,0,0,0
HOUSTON INTERCONT AP,TX,29.98,-95.36,29,January,42.08,53.06,50.18,7.82929,350,27.066974,0,0,0
LYNCHBURG RGNL AP,VA,37.3208,-79.2067,286.5,August,62.06,86,73.76,2.23694,350,16.105968,0,0,0
RICHMOND INTL AP,VA,37.505,-77.3203,50,January,28.22,37.04,35.24,8.500372,350,23.935258,0.1181103,0,0.01181103
RICHMOND INTL AP,VA,37.505,-77.3203,50,January,12.2,29.12,23.18,12.750558,350,29.08022,7.0078778,3.149608,0.55905542
RICHMOND INTL AP,VA,37.505,-77.3203,50,January,25.16,41,36.5,10.06623,350,31.093466,0,0,0.05118113
RICHMOND INTL AP,VA,37.505,-77.3203,50,August,64.94,80.06,73.04,6.71082,350,19.01399,0,0,0.83858313
WILMINGTON NEW CASTLE CO AP,DE,39.6728,-75.6008,24.1,August,64.04,80.06,72.14,6.934514,350,19.908766,0,0,0
HATTIESBURG CHAIN MUNI AP,MS,31.2819,-89.2531,46,January,39.92,57.02,54.32,7.381902,350,21.027236,0,0,0
MERIDIAN KEY FLD,MS,32.3347,-88.7442,89.6,August,71.06,87.08,77.72,2.460634,350,12.974252,0,0,0
MERIDIAN KEY FLD,MS,32.3347,-88.7442,89.6,August,71.06,93.92,80.24,3.579104,350,19.01399,0,0,0
CHARLESTON YEAGER AP,WV,38.3794,-81.59,277.4,August,64.94,75.92,68.54,3.579104,350,12.974252,0,0,0.96850446
ALMA BACON CO AP,GA,31.5358,-82.5067,58.8,January,46.94,64.94,54.14,2.684328,350,16.105968,0,0,0.72834685
ALMA BACON CO AP,GA,31.5358,-82.5067,58.8,August,73.04,91.94,79.16,2.013246,350,21.922012,0,0,0.01968505
ATLANTA HARTSFIELD INTL AP,GA,33.63,-84.4417,307.8,January,15.26,35.06,23.54,9.618842,350,21.922012,0,0,0
BIRMINGHAM AP,AL,33.5656,-86.745,187.5,January,23.18,35.06,33.44,12.079476,350,23.935258,0.3149608,0,0.16141741
BIRMINGHAM AP,AL,33.5656,-86.745,187.5,January,17.24,31.1,23.54,12.974252,350,31.093466,0,0,0
BIRMINGHAM AP,AL,33.5656,-86.745,187.5,August,71.96,75.92,73.76,0.447388,350,10.06623,0,0,2.57874155
BRISTOL TRI CITY AP,TN,36.4731,-82.4044,457.2,August,62.96,80.96,72.68,2.684328,350,14.092722,0,0,0
CHARLESTON INTL AP,SC,32.8986,-80.0403,12.2,January,44.06,62.96,53.42,6.039738,350,19.908766,0,0,0
CHARLOTTE DOUGLAS AP,NC,35.2236,-80.9553,221.9,January,33.98,60.08,52.88,6.263432,350,29.08022,0,0,0
MOBILE,AL,30.6794,-88.2397,63.4,January,24.26,37.94,31.82,17.671826,350,35.119958,0,0,0
MOBILE,AL,30.6794,-88.2397,63.4,August,73.04,78.98,76.82,4.250186,350,12.974252,0,0,0.38188997
AUSTIN BERGSTROM AP,TX,30.1831,-97.68,146.3,January,33.08,48.02,46.04,9.842536,350,25.053728,0,0,0
ABILENE RGNL AP,TX,32.4106,-99.6822,545.6,January,31.1,55.04,48.92,12.079476,350,27.96175,0,0,0
WICHITA FALLS MUNI AP,TX,33.9786,-98.4928,310,January,31.1,51.98,45.14,14.987498,350,29.08022,0,0,0
OKLAHOMA CITY WILL ROGERS AP,OK,35.3889,-97.6006,391.7,January,27.14,48.02,40.64,21.25093,350,38.02798,0,0,0
TULSA INTL AP,OK,36.1994,-95.8872,198.1,January,18.14,30.2,25.7,14.54011,350,27.96175,0,0,0
TULSA INTL AP,OK,36.1994,-95.8872,198.1,January,9.14,21.2,18.32,7.82929,350,21.922012,0.1968505,0,0.01181103
PONCA CITY MUNI AP,OK,36.7367,-97.1019,304.8,January,23.18,48.02,38.48,16.553356,350,34.001488,0,0,0
PONCA CITY MUNI AP,OK,36.7367,-97.1019,304.8,August,66.92,100.04,80.96,14.763804,350,53.015478,0,0,1.46063071
HARRISON BOONE CO AP,AR,36.2667,-93.1567,418.8,January,15.26,27.14,24.62,7.82929,350,21.027236,0.1181103,0,0
GAGE AP,OK,36.2967,-99.7689,667.8,January,22.1,37.94,32.54,14.54011,350,31.988242,0,0,0
GREENWOOD LEFLORE AP,MS,33.4964,-90.0867,40.5,January,30.2,44.06,36.32,5.59235,350,19.01399,0,0,0
CONCORDIA MUNI AP,KS,39.5514,-97.6508,447.8,January,31.1,46.94,39.02,10.289924,350,29.08022,0,0,0
CONCORDIA MUNI AP,KS,39.5514,-97.6508,447.8,January,4.1,24.26,12.02,6.71082,350,18.119214,0,1.181103,0
CONCORDIA MUNI AP,KS,39.5514,-97.6508,447.8,August,62.96,73.04,67.64,6.71082,350,17.000744,0,0,0
DODGE CITY,KS,37.7608,-99.9683,789.4,August,60.98,80.06,73.58,10.513618,350,27.066974,0,0,0
SPRINGFIELD,MO,37.2353,-93.4003,389.5,January,21.2,50,43.88,12.750558,350,25.053728,0,0,0
SPRINGFIELD,MO,37.2353,-93.4003,389.5,January,13.1,32,22.28,8.500372,350,21.922012,0,0,0
SPRINGFIELD,MO,37.2353,-93.4003,389.5,January,9.14,26.24,21.02,11.408394,350,19.908766,1.4960638,1.181103,0.05118113
SPRINGFIELD,MO,37.2353,-93.4003,389.5,August,68,87.98,76.46,4.250186,350,16.105968,0,0,0
TOPEKA MUNI AP,KS,39.0725,-95.6261,267,January,37.94,50,42.62,5.816044,350,19.908766,0,0,0.18897648
BANGOR INTL AP,ME,44.7978,-68.8186,45.1,January,31.1,35.06,32.54,6.71082,350,23.935258,0.1181103,7.9921303,0.57086645
BANGOR INTL AP,ME,44.7978,-68.8186,45.1,January,-0.76,16.16,8.78,4.026492,350,17.000744,0.7086618,7.9921303,0.01181103
BUFFALO,NY,42.9486,-78.7369,211.2,August,60.08,77,67.1,3.802798,350,21.027236,0,0,0
ALBANY AP,NY,42.7431,-73.8092,95.1,January,17.24,35.96,25.34,1.565858,350,8.052984,0,1.181103,0
CONCORD MUNI AP,NH,43.1953,-71.5011,105.5,January,6.26,19.22,13.64,3.35541,350,12.974252,1.4173236,9.842525,0.11023628
PROVIDENCE T F GREEN AP,RI,41.7219,-71.4325,18.3,January,13.1,22.1,17.96,9.395148,350,23.935258,0,9.842525,0
SYRACUSE HANCOCK INTL AP,NY,43.1111,-76.1039,125.9,August,62.06,84.92,73.22,2.013246,350,10.961006,0,0,0
WILLIAMSPORT,PA,41.2433,-76.9217,158.5,August,59,82.94,70.16,5.59235,350,23.040482,0,0,0
FT WAYNE INTL AP,IN,40.9706,-85.2064,241.1,August,53.96,78.08,66.56,4.921268,350,16.105968,0,0,0
MUSKEGON CO AP,MI,43.1711,-86.2367,190.5,August,55.94,80.06,69.62,6.263432,350,23.040482,0,0,0.01968505
INTL FALLS INTL AP,MN,48.5614,-93.3981,360.6,August,41,75.92,57.92,2.908022,350,23.040482,0,0,0
MINNEAPOLIS/ST PAUL AP,MN,44.8831,-93.2289,265.8,August,53.96,78.08,62.6,9.842536,350,23.935258,0,0,0
GRAND ISLAND AP,NE,40.9611,-98.3136,560.8,January,0.14,13.1,8.96,8.276678,350,21.922012,1.6141741,0,0.11023628
HURON RGNL AP,SD,44.3981,-98.2231,390.1,August,53.06,71.06,63.32,12.30317,350,29.974996,0,0,0
LINCOLN MUNI AP,NE,40.8508,-96.7475,362.7,January,10.22,30.2,24.62,19.461378,350,36.014734,0,0,0
LINCOLN MUNI AP,NE,40.8508,-96.7475,362.7,January,0.14,20.12,9.68,5.816044,350,19.908766,0,1.181103,0
NORFOLK KARL STEFAN AP,NE,41.9856,-97.4353,472.7,August,60.98,87.08,72.86,4.47388,350,40.041226,0,0,0
HILO INTL AP,HI,19.7192,-155.0531,11.6,January,60.08,78.08,69.26,7.381902,350,19.908766,0,0,0
LIHUE WSO AP 1020.1,HI,21.9839,-159.3405,30.5,January,62.06,75.92,67.28,8.052984,350,21.922012,0,0,0
MIDLAND ODESSA,TX,31.9433,-102.1889,874.2,August,69.08,82.04,78.26,6.71082,350,29.08022,0,0,1.44094566
LUBBOCK,TX,33.6542,-101.8136,993.3,January,15.26,42.08,33.08,16.329662,350,31.988242,0,0,0
EL PASO INTL AP,TX,31.8111,-106.3758,1194.2,January,31.1,60.08,42.44,5.144962,350,17.000744,0,0,0
ALBUQUERQUE INTL AP,NM,35.0419,-106.6156,1618.5,January,25.16,55.04,35.78,4.921268,350,19.908766,0,0,0
ALBUQUERQUE INTL AP,NM,35.0419,-106.6156,1618.5,January,28.22,53.96,39.02,5.144962,350,21.027236,0,0,0
ALAMOSA SAN LUIS AP,CO,37.4389,-105.8614,2296.1,August,44.96,82.04,62.06,5.816044,350,36.90951,0,0,0.01181103
ALAMOSA SAN LUIS AP,CO,37.4389,-105.8614,2296.1,August,42.08,75.02,57.56,6.71082,350,40.936002,0,0,0
LAS VEGAS MCCARRAN AP,NV,36.0719,-115.1633,649.5,August,84.02,98.06,91.94,6.71082,350,25.053728,0,0,0
CHEYENNE,WY,41.1519,-104.8061,1867.8,August,51.98,66.92,59,7.605596,350,31.988242,0,0,0.14960638
PIERRE RGNL AP,SD,44.3814,-100.2856,531,August,57.92,80.06,70.16,11.408394,350,33.106712,0,0,0.01181103
SCOTTSBLUFF HEILIG AP,NE,41.8706,-103.5931,1202.4,January,9.14,27.14,23.9,10.513618,350,25.053728,0,0,0
CASPER NATRONA CO AP,WY,42.8975,-106.4636,1627,January,0.14,13.1,12.38,7.82929,350,23.040482,1.4173236,1.181103,0.05905515
RAPID CITY RGNL AP,SD,44.0433,-103.0536,963.2,January,0.14,17.24,14.54,20.13246,350,42.949248,2.2834658,3.93701,0.05905515
RAPID CITY RGNL AP,SD,44.0433,-103.0536,963.2,January,-10.84,20.12,-0.76,3.131716,350,16.105968,0,5.118113,0
RAPID CITY RGNL AP,SD,44.0433,-103.0536,963.2,January,5.18,27.14,12.56,11.408394,350,29.08022,0,5.118113,0
RAPID CITY RGNL AP,SD,44.0433,-103.0536,963.2,August,55.94,78.08,65.84,13.197946,350,36.014734,0,0,0.05905515
RAPID CITY RGNL AP,SD,44.0433,-103.0536,963.2,August,51.08,82.04,67.46,14.54011,350,34.001488,0,0,0.01968505
SALT LAKE CITY INTL AP,UT,40.7781,-111.9694,1287.8,August,69.08,100.94,86.18,6.263432,350,19.908766,0,0,0
WINNEMUCCA MUNI AP,NV,40.9017,-117.8081,1309.4,January,16.16,39.02,26.96,4.250186,350,19.01399,0,1.181103,0
BOISE AIR TERMINAL,ID,43.5667,-116.2406,857.7,August,68,98.06,83.66,5.59235,350,19.908766,0,0,0
HELENA RGNL AP,MT,46.6056,-111.9636,1166.8,August,59,91.04,76.82,6.934514,350,21.922012,0,0,0
HELENA RGNL AP,MT,46.6056,-111.9636,1166.8,August,53.06,87.08,72.68,8.276678,350,29.08022,0,0,0
HELENA RGNL AP,MT,46.6056,-111.9636,1166.8,August,48.92,82.04,63.14,4.697574,350,14.987498,0,0,0
HELENA RGNL AP,MT,46.6056,-111.9636,1166.8,August,60.08,82.94,71.78,8.276678,350,21.027236,0,0,0
POCATELLO RGNL AP,ID,42.9203,-112.5711,1364.9,January,-6.88,25.16,6.44,3.579104,350,12.079476,0,12.992133,0
EUREKA WFO WOODLEY ISLAND,CA,40.8097,-124.1603,6.1,August,57.02,62.96,57.56,4.250186,350,12.974252,0,0,0
EUGENE MAHLON SWEET AP,OR,44.1278,-123.2206,107.6,August,55.94,102.02,78.44,6.487126,350,25.948504,0,0,0
MEDFORD ROGUE VLY AP,OR,42.3811,-122.8722,395.3,August,66.92,109.94,85.46,3.131716,350,19.01399,0,0,0
OLYMPIA AP,WA,46.9733,-122.9033,57.3,August,53.06,87.98,68.36,2.460634,350,12.974252,0,0,0
REDMOND ROBERTS FLD,OR,44.2558,-121.1392,927.5,August,53.96,93.02,74.66,4.921268,350,14.987498,0,0,0
SALEM MCNARY FLD,OR,44.905,-123.0011,62.5,August,55.04,91.04,70.7,3.579104,350,14.987498,0,0,0
SALEM MCNARY FLD,OR,44.905,-123.0011,62.5,August,64.04,93.02,76.64,3.802798,350,12.974252,0,0,0
SALEM MCNARY FLD,OR,44.905,-123.0011,62.5,August,60.08,95,76.28,3.802798,350,16.105968,0,0,0
SEATTLE TACOMA INTL AP,WA,47.4444,-122.3139,112.8,August,69.08,91.04,78.44,9.618842,350,21.027236,0,0,0
REDDING MUNI AP,CA,40.5175,-122.2986,151.5,January,39.02,44.06,41.54,4.697574,350,17.000744,0,0,1.75196945
ANNETTE ISLAND AP,AK,55.0389,-131.5786,33.2,January,21.2,39.92,29.12,1.342164,350,8.94776,0,0,0
KODIAK AP,AK,57.7511,-152.4856,24.4,August,55.04,57.92,56.12,5.816044,350,19.908766,0,0,0.07086618
KING SALMON,AK,58.6794,-156.6294,19.2,January,1.22,12.2,7.52,6.039738,350,18.119214,0,0,0
KING SALMON,AK,58.6794,-156.6294,19.2,January,-0.76,17.24,6.08,2.013246,350,12.079476,0,0,0
KING SALMON,AK,58.6794,-156.6294,19.2,January,13.1,33.98,33.26,5.816044,350,14.987498,0,0,0
COLD BAY AP,AK,55.2208,-162.7325,23.8,August,53.06,62.96,57.02,7.381902,350,21.027236,0,0,0.09842525
COLORADO SPRINGS MUNI AP,CO,38.81,-104.6883,1884,January,7.16,28.22,15.08,6.71082,350,31.988242,0,0,0
COLORADO SPRINGS MUNI AP,CO,38.81,-104.6883,1884,August,57.92,69.98,66.38,11.1847,350,33.106712,0,0,0.07086618
CINCINNATI NORTHERN KY AP,KY,39.0431,-84.6717,264.9,August,60.08,80.06,70.16,6.487126,350,19.908766,0,0,0
SPRINGFIELD CAPITAL AP,IL,39.8447,-89.6839,181.1,August,64.94,86,75.02,2.684328,350,21.922012,0,0,0
SPRINGFIELD CAPITAL AP,IL,39.8447,-89.6839,181.1,August,60.98,78.08,71.96,4.026492,350,18.119214,0,0,0
TUPELO RGNL AP,MS,34.2622,-88.7714,110,January,15.26,29.12,21.74,12.079476,350,27.96175,0,0,0
NEW YORK JFK INTL AP,NY,40.6386,-73.7622,3.4,January,21.2,27.14,25.34,16.105968,350,35.119958,8.1889808,0,0.22047256
NEW YORK JFK INTL AP,NY,40.6386,-73.7622,3.4,August,66.02,82.04,71.42,8.500372,350,23.040482,0,0,0
GUAM INTL AP,GU,13.4836,144.7961,77.4,August,78.98,89.96,84.02,3.802798,340,12.079476,0,0,0.09842525
KALISPELL GLACIER AP,MT,48.3042,-114.2636,901.3,January,-21.82,6.26,-4.54,1.789552,340,19.908766,0,9.842525,0
DENVER INTL AP,CO,39.8328,-104.6575,1650.2,January,12.2,48.02,27.14,9.618842,340,25.053728,0,1.968505,0
ASHEVILLE RGNL AP,NC,35.4319,-82.5375,645.3,January,30.2,53.96,47.48,13.42164,340,38.922756,0,0,0
ASHEVILLE RGNL AP,NC,35.4319,-82.5375,645.3,January,25.16,44.06,33.98,6.263432,340,23.935258,0,0,0
ASHEVILLE RGNL AP,NC,35.4319,-82.5375,645.3,January,13.1,25.16,21.92,18.790296,340,38.922756,2.2047256,7.086618,0.20866153
ASHEVILLE RGNL AP,NC,35.4319,-82.5375,645.3,January,8.24,22.1,14.54,12.750558,340,36.90951,0,5.905515,0
ASHEVILLE RGNL AP,NC,35.4319,-82.5375,645.3,January,26.24,42.98,33.8,7.82929,340,40.936002,0,0,0
ASHEVILLE RGNL AP,NC,35.4319,-82.5375,645.3,August,59,84.92,71.42,3.579104,340,25.948504,0,0,0.07086618
MACON MIDDLE GA RGNL AP,GA,32.6847,-83.6528,104.5,January,46.04,62.06,56.48,8.500372,340,25.948504,0,0,0
PADUCAH,KY,37.0683,-88.7719,119.5,January,23.18,37.04,32.54,8.276678,340,25.053728,0,0,0
SAVANNAH INTL AP,GA,32.13,-81.21,14,January,32,48.92,44.96,13.645334,340,31.093466,0,0,1.12992187
HUNTINGTON TRI STATE AP,WV,38.365,-82.555,251.2,August,60.08,80.96,70.16,3.579104,340,14.987498,0,0,0
GREER,SC,34.8831,-82.2203,286.5,January,22.1,32,30.74,11.1847,340,31.988242,1.8897648,3.149608,0.38188997
JACKSON,KY,37.5908,-83.3131,415.7,January,22.1,27.14,25.52,1.789552,340,10.961006,2.2047256,0,0.16141741
JACKSON,KY,37.5908,-83.3131,415.7,January,13.1,22.1,19.04,3.131716,340,14.092722,0.1968505,1.181103,0.01181103
CLARKSVILLE OUTLAW AP,TN,36.6239,-87.4194,170.7,January,8.24,21.2,14.54,8.500372,340,23.935258,0,0,0
COLLEGE STN,TX,30.5892,-96.3647,93,January,42.08,73.94,59,8.724066,340,25.053728,0,0,0
DALLAS FT WORTH AP,TX,32.8978,-97.0189,170.7,January,14.18,39.92,23.36,5.816044,340,14.092722,0,0,0
WICHITA,KS,37.6544,-97.4425,406.9,August,68,82.04,72.14,9.842536,340,23.040482,0,0,0.01968505
LAKE CHARLES,LA,30.125,-93.2158,4,January,44.06,53.96,54.32,8.500372,340,23.935258,0,0,0
LAKE CHARLES,LA,30.125,-93.2158,4,August,75.02,91.94,81.14,2.460634,340,21.922012,0,0,0.40944904
KANSAS CITY INTL AP,MO,39.2972,-94.7306,306.3,January,15.26,42.98,34.88,14.763804,340,29.974996,0,0,0
BINGHAMTON,NY,42.1997,-75.985,489.5,August,55.94,71.96,62.6,6.71082,340,21.922012,0,0,0
DAYTONA BEACH INTL AP,FL,29.1828,-81.0483,9.4,August,77,93.02,84.56,4.697574,340,23.040482,0,0,0
VICTORIA RGNL AP,TX,28.8614,-96.9303,35.1,January,21.2,44.96,30.92,10.961006,340,25.948504,0,0,0
NEW ORLEANS INTL AP,LA,29.9933,-90.2511,1.2,January,48.02,62.06,59.72,9.171454,340,21.922012,0,0,0
PORT ARTHUR SE TX AP,TX,29.9506,-94.0206,4.9,January,46.04,55.94,52.88,9.171454,340,29.974996,0,0,0
HOUSTON HOBBY AP,TX,29.6381,-95.2819,13.4,January,57.02,75.02,69.8,8.052984,340,36.90951,0,0,1.05118167
HOUSTON HOBBY AP,TX,29.6381,-95.2819,13.4,January,23.18,42.98,30.74,11.1847,340,29.08022,0,0,0
BROWNSVILLE,TX,25.9156,-97.4186,7,January,35.96,71.06,57.02,17.000744,340,34.001488,0,0,0
GALVESTON SCHOLES FLD,TX,29.2733,-94.8592,1.5,January,55.94,78.98,66.02,8.94776,340,29.974996,0,0,0.01968505
GALVESTON SCHOLES FLD,TX,29.2733,-94.8592,1.5,January,50,57.92,55.22,11.855782,340,34.001488,0,0,0
GALVESTON SCHOLES FLD,TX,29.2733,-94.8592,1.5,January,30.2,42.98,35.78,17.000744,340,36.90951,0,0,0
CORPUS CHRISTI,TX,27.7839,-97.5108,13.7,January,51.98,84.92,74.48,10.737312,340,29.974996,0,0,0
HOUSTON INTERCONT AP,TX,29.98,-95.36,29,January,21.2,42.98,30.02,9.842536,340,25.948504,0,0,0
ELKINS RANDOLPH CO AP,WV,38.8853,-79.8528,603.2,August,62.96,75.02,66.2,2.460634,340,14.092722,0,0,0.57874047
NORFOLK INTL AP,VA,36.9033,-76.1922,9.1,January,22.1,32,30.38,19.461378,340,44.067718,5.3149635,2.0078751,1.03937064
RICHMOND INTL AP,VA,37.505,-77.3203,50,August,64.04,87.98,80.96,7.82929,340,21.922012,0,0,0
WASHINGTON REAGAN AP,VA,38.8483,-77.0342,3,January,15.26,25.16,20.12,14.316416,340,38.02798,0,0,0
WASHINGTON REAGAN AP,VA,38.8483,-77.0342,3,August,69.98,80.96,73.94,7.605596,340,19.01399,0,0,0.0393701
HATTIESBURG CHAIN MUNI AP,MS,31.2819,-89.2531,46,January,35.96,57.92,45.68,2.908022,340,21.027236,0,0,0.09055123
HATTIESBURG CHAIN MUNI AP,MS,31.2819,-89.2531,46,August,73.94,93.02,79.34,3.579104,340,16.105968,0,0,0.79921303
MERIDIAN KEY FLD,MS,32.3347,-88.7442,89.6,January,50,71.96,62.78,4.921268,340,16.105968,0,0,0
CHARLESTON YEAGER AP,WV,38.3794,-81.59,277.4,August,57.92,80.06,65.84,1.11847,340,8.94776,0,0,0.01968505
ALMA BACON CO AP,GA,31.5358,-82.5067,58.8,January,25.16,44.06,33.26,5.368656,340,17.000744,0,0,0
ATLANTA HARTSFIELD INTL AP,GA,33.63,-84.4417,307.8,January,37.94,55.04,52.16,12.974252,340,31.988242,0,0,0
BIRMINGHAM AP,AL,33.5656,-86.745,187.5,January,33.08,55.04,49.82,9.618842,340,23.935258,0,0,0
BIRMINGHAM AP,AL,33.5656,-86.745,187.5,January,30.2,51.08,39.74,6.263432,340,19.01399,0,0,0
BRISTOL TRI CITY AP,TN,36.4731,-82.4044,457.2,January,11.12,23.18,19.94,7.158208,340,21.922012,2.4015761,3.149608,0.14960638
CHARLESTON INTL AP,SC,32.8986,-80.0403,12.2,January,29.12,46.04,41.9,15.211192,340,40.041226,0,0,0.38976399
CHARLOTTE DOUGLAS AP,NC,35.2236,-80.9553,221.9,August,69.08,89.06,77.54,4.250186,340,14.987498,0,0,0
CHATTANOOGA LOVELL AP,TN,35.0311,-85.2014,204.5,January,32,53.96,41.9,4.921268,340,25.948504,0,0,0
MEMPHIS INTL AP,TN,35.0564,-89.9864,77.4,January,44.06,59,57.02,8.500372,340,29.08022,0,0,0.01968505
MEMPHIS INTL AP,TN,35.0564,-89.9864,77.4,January,31.1,44.06,40.46,10.737312,340,25.948504,0,0,0
MEMPHIS INTL AP,TN,35.0564,-89.9864,77.4,August,68,87.98,77.36,4.697574,340,19.908766,0,0,0.14960638
MOBILE,AL,30.6794,-88.2397,63.4,January,39.92,62.06,56.66,9.395148,340,23.040482,0,0,0
NASHVILLE INTL AP,TN,36.1189,-86.6892,182.9,January,24.26,33.08,29.66,8.052984,340,21.922012,0,0,0.01181103
NASHVILLE INTL AP,TN,36.1189,-86.6892,182.9,January,16.16,25.16,22.28,11.632088,340,25.948504,0.393701,0,0.05118113
AUSTIN BERGSTROM AP,TX,30.1831,-97.68,146.3,August,77,89.06,84.92,5.816044,340,25.948504,0,0,0.01181103
WACO RGNL AP,TX,31.6189,-97.2283,152.4,January,37.94,66.02,53.06,11.855782,340,27.96175,0,0,0
WACO RGNL AP,TX,31.6189,-97.2283,152.4,January,33.08,44.96,38.66,9.395148,340,25.053728,0,0,0
WACO RGNL AP,TX,31.6189,-97.2283,152.4,January,19.22,31.1,29.3,17.000744,340,31.988242,0,0,0
TULSA INTL AP,OK,36.1994,-95.8872,198.1,January,26.24,50,44.06,14.54011,340,29.08022,0,0,0
TULSA INTL AP,OK,36.1994,-95.8872,198.1,January,19.22,35.06,26.96,9.395148,340,23.040482,0,0,0
HARRISON BOONE CO AP,AR,36.2667,-93.1567,418.8,January,18.14,33.98,25.7,5.368656,340,19.01399,0,0,0
HARRISON BOONE CO AP,AR,36.2667,-93.1567,418.8,August,64.94,89.06,76.1,5.59235,340,25.053728,0,0,0.05905515
CONCORDIA MUNI AP,KS,39.5514,-97.6508,447.8,January,13.1,30.2,25.34,16.105968,340,36.014734,0,0,0
ST LOUIS LAMBERT INTL AP,MO,38.7525,-90.3736,161.8,August,62.06,78.98,73.04,10.289924,340,27.066974,0,0,0
SPRINGFIELD,MO,37.2353,-93.4003,389.5,January,6.26,14.18,11.12,8.052984,340,21.027236,0,1.181103,0
TOPEKA MUNI AP,KS,39.0725,-95.6261,267,January,16.16,41,35.24,14.316416,340,31.988242,0,0,0
TOPEKA MUNI AP,KS,39.0725,-95.6261,267,January,5.18,17.24,13.64,8.724066,340,25.948504,0.5905515,1.968505,0.0393701
TOPEKA MUNI AP,KS,39.0725,-95.6261,267,January,0.14,17.24,7.7,4.026492,340,16.105968,0,1.968505,0
NEW YORK LAGUARDIA AP,NY,40.7794,-73.8803,3.4,January,22.1,28.22,25.34,13.869028,340,31.093466,7.0078778,0,0.27952771
NEW YORK LAGUARDIA AP,NY,40.7794,-73.8803,3.4,August,64.94,80.06,70.34,7.381902,340,21.922012,0,0,0
ALBANY AP,NY,42.7431,-73.8092,95.1,January,31.1,37.04,33.98,3.131716,340,10.961006,0,1.181103,0.48031522
ALLENTOWN INTL AP,PA,40.6508,-75.4492,118.9,January,23.18,37.04,30.92,5.368656,340,16.105968,0,0,0
ALLENTOWN INTL AP,PA,40.6508,-75.4492,118.9,August,60.98,80.96,70.34,5.59235,340,17.000744,0,0,0.01181103
BURLINGTON INTL AP,VT,44.4683,-73.15,100.6,August,66.92,86,75.02,5.816044,340,19.908766,0,0,0.07086618
BURLINGTON INTL AP,VT,44.4683,-73.15,100.6,August,59,75.92,66.92,4.026492,340,14.987498,0,0,0.05118113
CONCORD MUNI AP,NH,43.1953,-71.5011,105.5,August,55.94,78.08,66.92,3.131716,340,21.922012,0,0,0.29133874
PORTLAND INTL JETPORT,ME,43.6497,-70.3003,13.7,January,9.14,21.2,15.44,10.289924,340,23.040482,0.1181103,1.968505,0.01181103
PORTLAND INTL JETPORT,ME,43.6497,-70.3003,13.7,January,12.2,25.16,20.48,3.802798,340,14.987498,0,0,0
PROVIDENCE T F GREEN AP,RI,41.7219,-71.4325,18.3,January,5.18,20.12,14,4.697574,340,14.092722,0,7.086618,0
ROCHESTER GTR INTL AP,NY,43.1167,-77.6767,162.5,August,64.04,84.92,73.76,4.921268,340,19.01399,0,0,0.14960638
WILLIAMSPORT,PA,41.2433,-76.9217,158.5,August,62.96,89.96,74.84,4.026492,340,25.053728,0,0,0
WILLIAMSPORT,PA,41.2433,-76.9217,158.5,August,64.04,87.98,76.1,4.47388,340,35.119958,0,0,2.46063125
CLEVELAND,OH,41.4131,-81.86,232.6,January,23.18,27.14,26.24,8.724066,340,21.027236,2.2834658,3.93701,0.14960638
FLINT BISHOP INTL AP,MI,42.9667,-83.7494,234.7,August,51.98,75.92,64.94,4.697574,340,23.040482,0,0,0.01968505
LANSING CAPITAL CITY AP,MI,42.7803,-84.5789,256.3,August,53.96,77,65.3,2.908022,340,21.027236,0,0,0.05118113
YOUNGSTOWN RGNL AP,OH,41.2544,-80.6739,359.7,August,55.94,75.92,65.84,4.026492,340,16.105968,0,0,0
MANSFIELD LAHM MUNI AP,OH,40.8203,-82.5178,394.7,August,57.02,78.08,67.46,5.816044,340,18.119214,0,0,0
GREEN BAY,WI,44.4983,-88.1111,207.9,August,53.06,68,60.44,8.724066,340,27.96175,0,0,0.5905515
FARGO HECTOR INTL AP,ND,46.9253,-96.8111,274.3,January,9.14,35.96,34.88,17.000744,340,34.001488,0.1968505,1.968505,0.01968505
FARGO HECTOR INTL AP,ND,46.9253,-96.8111,274.3,August,55.04,73.04,60.62,9.618842,340,27.066974,0,0,0.0787402
GRAND FORKS INTL AP,ND,47.9428,-97.1839,256.6,August,57.92,84.02,73.58,10.513618,340,31.988242,0,0,0
INTL FALLS INTL AP,MN,48.5614,-93.3981,360.6,August,62.06,80.96,72.14,7.158208,340,38.922756,0,0,0.09842525
INTL FALLS INTL AP,MN,48.5614,-93.3981,360.6,August,50,68,59.72,2.23694,340,23.040482,0,0,0.05905515
ST CLOUD RGNL AP,MN,45.5433,-94.0514,310.3,August,60.98,86,73.58,7.158208,340,25.948504,0,0,0
ABERDEEN,SD,45.4558,-98.4131,396.8,August,59,82.94,70.16,8.724066,340,29.974996,0,0,0
DES MOINES INTL AP,IA,41.5339,-93.6531,291.7,August,53.06,80.06,64.94,8.500372,340,27.96175,0,0,0
GRAND ISLAND AP,NE,40.9611,-98.3136,560.8,January,18.14,33.98,32.36,11.408394,340,35.119958,0,0,0
GRAND ISLAND AP,NE,40.9611,-98.3136,560.8,January,5.18,21.2,17.96,18.342908,340,38.02798,0,0,0
GRAND ISLAND AP,NE,40.9611,-98.3136,560.8,January,0.14,17.24,8.24,6.71082,340,17.000744,0,1.181103,0
GRAND ISLAND AP,NE,40.9611,-98.3136,560.8,January,27.14,59,39.74,12.750558,340,36.90951,0,0,0
GRAND ISLAND AP,NE,40.9611,-98.3136,560.8,August,60.08,80.96,70.16,4.47388,340,36.90951,0,0,0.29133874
LINCOLN MUNI AP,NE,40.8508,-96.7475,362.7,January,7.16,14.18,11.66,8.94776,340,21.922012,2.0078751,0,0.11023628
OMAHA EPPLEY AIRFIELD,NE,41.3103,-95.8992,299.3,August,66.92,89.96,77,4.697574,340,27.96175,0,0,0
SIOUX FALLS,SD,43.5878,-96.7289,435.9,August,53.96,71.06,65.66,10.737312,340,29.974996,0,0,0
HILO INTL AP,HI,19.7192,-155.0531,11.6,January,62.06,77,69.44,8.276678,340,23.040482,0,0,0
ROSWELL IND AIR PK,NM,33.3075,-104.5083,1112.2,January,19.22,64.94,32.18,5.144962,340,23.935258,0,1.181103,0
EL PASO INTL AP,TX,31.8111,-106.3758,1194.2,January,26.24,50,34.88,4.697574,340,16.105968,0,0,0
EL PASO INTL AP,TX,31.8111,-106.3758,1194.2,August,69.08,89.06,76.28,8.94776,340,23.935258,0,0,0.0393701
ALBUQUERQUE INTL AP,NM,35.0419,-106.6156,1618.5,January,14.18,35.96,31.82,12.526864,340,27.96175,0.5905515,1.181103,0.05905515
ALBUQUERQUE INTL AP,NM,35.0419,-106.6156,1618.5,January,27.14,60.98,43.34,5.144962,340,25.053728,0,0,0
ALAMOSA SAN LUIS AP,CO,37.4389,-105.8614,2296.1,August,48.02,75.02,58.64,6.263432,340,44.962494,0,0,0.42126007
GRAND JUNCTION WALKER FLD,CO,39.1342,-108.54,1480.7,January,30.2,42.08,34.52,4.697574,340,14.092722,0,0,0
BAKERSFIELD AP,CA,35.4344,-119.0542,149,January,39.02,55.94,44.6,4.250186,340,14.987498,0,0,0
BAKERSFIELD AP,CA,35.4344,-119.0542,149,August,77,100.94,89.06,7.158208,340,21.027236,0,0,0
BISHOP AP,CA,37.3711,-118.3581,1250.3,January,24.26,55.04,35.96,5.816044,340,12.974252,0,0,0
LOS ANGELES INTL AP,CA,33.9381,-118.3889,29.6,January,51.08,75.92,63.5,5.816044,340,16.105968,0,0,0
CHEYENNE,WY,41.1519,-104.8061,1867.8,August,55.94,87.08,70.34,8.724066,340,31.093466,0,0,0
CHEYENNE,WY,41.1519,-104.8061,1867.8,August,53.96,75.92,60.98,10.06623,340,29.974996,0,0,0
CHEYENNE,WY,41.1519,-104.8061,1867.8,August,53.96,75.02,63.86,9.618842,340,29.974996,0,0,0.01968505
NORTH PLATTE RGNL AP,NE,41.1214,-100.6694,846.7,January,12.2,33.98,28.4,9.171454,340,29.974996,0,0,0
NORTH PLATTE RGNL AP,NE,41.1214,-100.6694,846.7,January,5.18,21.2,14.54,11.1847,340,29.974996,0,0,0
NORTH PLATTE RGNL AP,NE,41.1214,-100.6694,846.7,January,3.2,11.12,8.42,3.579104,340,12.079476,6.4173263,3.149608,0.22047256
NORTH PLATTE RGNL AP,NE,41.1214,-100.6694,846.7,January,-18.76,8.24,5.72,8.500372,340,23.040482,0,5.118113,0
RAPID CITY RGNL AP,SD,44.0433,-103.0536,963.2,January,-2.74,7.16,2.84,10.513618,340,29.08022,0,5.905515,0
RAPID CITY RGNL AP,SD,44.0433,-103.0536,963.2,January,-10.84,6.26,-1.12,4.47388,340,19.908766,0,5.905515,0
RAPID CITY RGNL AP,SD,44.0433,-103.0536,963.2,August,51.98,82.04,70.34,11.632088,340,48.988986,0,0,0.14173236
SALT LAKE CITY INTL AP,UT,40.7781,-111.9694,1287.8,January,21.2,27.14,22.46,6.263432,340,17.000744,0,3.93701,0
SALT LAKE CITY INTL AP,UT,40.7781,-111.9694,1287.8,January,-5.8,19.22,3.92,4.026492,340,18.119214,0,7.87402,0.01181103
SALT LAKE CITY INTL AP,UT,40.7781,-111.9694,1287.8,January,17.24,27.14,20.66,4.697574,340,17.000744,0,2.0078751,0
SALT LAKE CITY INTL AP,UT,40.7781,-111.9694,1287.8,January,20.12,30.2,22.28,3.579104,340,12.974252,0,1.181103,0
WINNEMUCCA MUNI AP,NV,40.9017,-117.8081,1309.4,August,55.04,104,83.66,7.605596,340,25.053728,0,0,0
GREAT FALLS INTL AP,MT,47.4733,-111.3822,1116.8,August,51.98,75.92,66.74,8.276678,340,21.922012,0,0,0
MISSOULA INTL AP,MT,46.9208,-114.0925,972.9,January,-13.9,7.16,0.86,2.013246,340,10.06623,0,9.055123,0
PENDLETON,OR,45.6906,-118.8528,461.8,January,21.2,26.24,25.52,6.71082,340,12.079476,0.787402,1.968505,0.0393701
EUREKA WFO WOODLEY ISLAND,CA,40.8097,-124.1603,6.1,August,57.02,66.02,58.28,3.35541,340,8.94776,0,0,0
RED BLUFF MUNI AP,CA,40.1519,-122.2536,107.6,January,33.08,46.94,40.46,12.079476,340,33.106712,0,0,0
EUGENE MAHLON SWEET AP,OR,44.1278,-123.2206,107.6,August,55.04,93.92,73.76,5.816044,340,23.040482,0,0,0
MEDFORD ROGUE VLY AP,OR,42.3811,-122.8722,395.3,January,24.26,53.06,34.88,0.894776,340,6.934514,0,0,0
OLYMPIA AP,WA,46.9733,-122.9033,57.3,January,15.26,35.06,25.7,1.789552,340,8.94776,0,0,0
REDMOND ROBERTS FLD,OR,44.2558,-121.1392,927.5,August,53.96,95,77.54,4.921268,340,23.040482,0,0,0
REDMOND ROBERTS FLD,OR,44.2558,-121.1392,927.5,August,51.08,96.08,75.56,5.368656,340,19.01399,0,0,0
SALEM MCNARY FLD,OR,44.905,-123.0011,62.5,August,66.92,107.06,84.38,7.605596,340,21.922012,0,0,0
REDDING MUNI AP,CA,40.5175,-122.2986,151.5,January,30.2,62.96,44.42,0.894776,340,6.934514,0,0,0
ANNETTE ISLAND AP,AK,55.0389,-131.5786,33.2,January,24.26,41,37.22,4.921268,340,21.922012,0,0,0
ANNETTE ISLAND AP,AK,55.0389,-131.5786,33.2,August,60.08,82.04,69.98,10.513618,340,25.053728,0,0,
COLD BAY AP,AK,55.2208,-162.7325,23.8,January,21.2,41,31.1,3.131716,340,12.974252,0,0,0
ST PAUL ISLAND AP,AK,57.1553,-170.2222,10.7,August,51.08,55.94,52.88,12.30317,340,25.053728,0,0,0.12992133
ANCHORAGE INTL AP,AK,61.1689,-150.0278,36.6,January,3.2,17.24,11.66,2.23694,340,8.052984,0,9.055123,0
ALABASTER SHELBY CO AP,AL,33.1783,-86.7817,172.2,August,71.96,77,73.76,0.223694,340,10.06623,0,0,1.25196918
COLORADO SPRINGS MUNI AP,CO,38.81,-104.6883,1884,August,53.96,77,64.76,7.82929,340,23.935258,0,0,0.0787402
BALTIMORE WASH INTL AP,MD,39.1667,-76.6833,47.5,August,62.06,80.06,71.42,4.026492,340,21.922012,0,0,0.0393701
WALLOPS ISLAND FLIGHT FAC,VA,37.9406,-75.4631,11.6,August,62.06,82.94,77.54,7.381902,340,23.935258,0,0,0
TALLAHASSEE,FL,30.3975,-84.3289,19.2,January,51.08,66.92,59.54,5.59235,340,21.027236,0,0,0
TALLAHASSEE,FL,30.3975,-84.3289,19.2,January,46.04,73.04,56.66,4.697574,340,23.040482,0,0,0.72834685
TALLAHASSEE,FL,30.3975,-84.3289,19.2,January,33.08,48.02,45.14,15.882274,340,35.119958,0,0,0.6692917
EVANSVILLE REGIONAL AP,IN,38.0442,-87.5206,121.9,January,12.2,17.24,14.36,7.158208,340,18.119214,0,0,0
EVANSVILLE REGIONAL AP,IN,38.0442,-87.5206,121.9,August,64.94,82.04,69.98,6.934514,340,17.000744,0,0,0
LEXINGTON BLUEGRASS AP,KY,38.0408,-84.6058,298.7,January,10.22,20.12,16.16,8.052984,340,18.119214,0,1.968505,0
TUPELO RGNL AP,MS,34.2622,-88.7714,110,January,27.14,39.92,33.62,6.934514,340,21.922012,0,0,0
GULFPORT - BILOXI AP,MS,30.4119,-89.0808,12.8,January,44.96,64.04,56.84,8.500372,340,23.935258,0,0,0
PITTSBURGH INTL AP,PA,40.4847,-80.2144,366.7,August,57.92,75.92,68.36,7.158208,340,23.040482,0,0,0
DETROIT METRO AP,MI,42.2314,-83.3308,192.3,August,60.98,80.06,70.16,5.816044,340,21.922012,0,0,0
DENVER INTL AP,CO,39.8328,-104.6575,1650.2,August,57.02,86,70.88,9.842536,330,40.041226,0,0,0.61811057
DENVER INTL AP,CO,39.8328,-104.6575,1650.2,August,57.02,80.06,66.56,7.82929,330,27.066974,0,0,0
ASHEVILLE RGNL AP,NC,35.4319,-82.5375,645.3,January,46.94,62.96,51.26,5.368656,330,23.935258,0,0,0.33858286
ASHEVILLE RGNL AP,NC,35.4319,-82.5375,645.3,August,57.92,80.96,69.8,3.35541,330,14.987498,0,0,0
ASHEVILLE RGNL AP,NC,35.4319,-82.5375,645.3,August,66.92,80.06,71.78,5.368656,330,19.908766,0,0,0.14173236
MACON MIDDLE GA RGNL AP,GA,32.6847,-83.6528,104.5,August,75.02,82.04,78.44,2.908022,330,12.079476,0,0,0.27165369
BECKLEY RALEIGH CO AP,WV,37.7836,-81.1231,766.3,August,53.06,71.06,64.22,7.605596,330,19.01399,0,0,0
LONGVIEW E TX RGNL AP,TX,32.3847,-94.7117,111.3,January,19.22,33.98,32.18,10.513618,330,25.948504,0,0,0
DALLAS FT WORTH AP,TX,32.8978,-97.0189,170.7,January,39.02,60.98,55.58,15.882274,330,31.093466,0,0,0
WICHITA,KS,37.6544,-97.4425,406.9,August,66.92,91.04,79.7,9.618842,330,29.08022,0,0,0
JACKSON INTL AP,MS,32.3206,-90.0778,100.6,January,22.1,37.04,33.62,12.974252,330,29.08022,0.787402,0,0.5511814
COLUMBIA RGNL AP,MO,38.8169,-92.2183,272.2,August,57.02,78.98,69.98,7.82929,330,23.935258,0,0,0
KANSAS CITY INTL AP,MO,39.2972,-94.7306,306.3,January,10.22,21.2,15.98,7.605596,330,16.105968,1.4960638,1.968505,0.14960638
BINGHAMTON,NY,42.1997,-75.985,489.5,January,10.22,23.18,18.86,6.039738,330,19.908766,0.1181103,3.149608,0
ISLIP LI MACARTHUR AP,NY,40.7939,-73.1017,25.6,August,60.08,78.98,70.34,8.500372,330,23.040482,0,0,0
DAYTONA BEACH INTL AP,FL,29.1828,-81.0483,9.4,January,41,69.08,60.26,11.855782,330,29.974996,0,0,0.94094539
DAYTONA BEACH INTL AP,FL,29.1828,-81.0483,9.4,January,41,60.98,49.82,6.039738,330,23.935258,0,0,0
KEY WEST INTL AP,FL,24.555,-81.7522,1.2,January,71.06,80.96,75.92,4.697574,330,14.987498,0,0,0
KEY WEST INTL AP,FL,24.555,-81.7522,1.2,January,62.06,82.04,77.54,14.54011,330,38.922756,0,0,0.07086618
TAMPA INTL AP,FL,27.9619,-82.5403,5.8,January,51.08,62.96,59.72,8.724066,330,27.96175,0,0,0
VICTORIA RGNL AP,TX,28.8614,-96.9303,35.1,August,75.92,89.06,84.74,8.276678,330,25.053728,0,0,0.01968505
HOUSTON HOBBY AP,TX,29.6381,-95.2819,13.4,January,51.08,78.08,63.14,8.500372,330,25.053728,0,0,0
HOUSTON HOBBY AP,TX,29.6381,-95.2819,13.4,January,44.06,55.94,51.98,8.276678,330,25.053728,0,0,0
HOUSTON HOBBY AP,TX,29.6381,-95.2819,13.4,January,28.22,44.96,42.08,18.119214,330,31.988242,0,0,0.11023628
BROWNSVILLE,TX,25.9156,-97.4186,7,January,31.1,42.98,36.14,15.211192,330,33.106712,0,0,0
HOUSTON INTERCONT AP,TX,29.98,-95.36,29,January,51.98,73.94,68.72,6.263432,330,42.949248,0,0,1.29133928
HOUSTON INTERCONT AP,TX,29.98,-95.36,29,January,48.02,75.92,62.06,8.500372,330,27.066974,0,0,0
RALEIGH DURHAM INTL AP,NC,35.8922,-78.7819,126.8,January,41,64.04,56.12,5.816044,330,25.948504,0,0,0
LYNCHBURG RGNL AP,VA,37.3208,-79.2067,286.5,August,60.08,82.04,74.48,3.579104,330,18.119214,0,0,0
NORFOLK INTL AP,VA,36.9033,-76.1922,9.1,January,18.14,25.16,22.1,11.632088,330,34.001488,0,5.0000027,0
RICHMOND INTL AP,VA,37.505,-77.3203,50,January,30.2,39.02,37.76,4.250186,330,14.987498,0,0,0
RICHMOND INTL AP,VA,37.505,-77.3203,50,January,2.12,24.26,14.36,7.158208,330,27.066974,0,5.905515,0
WASHINGTON REAGAN AP,VA,38.8483,-77.0342,3,January,27.14,35.06,33.26,12.30317,330,23.935258,0,0,0
WILMINGTON INTL AP,NC,34.2675,-77.8997,10.1,January,24.26,41,35.24,16.553356,330,40.041226,0,0,0.48031522
ELIZABETH CITY CGAS,NC,36.2606,-76.175,4,January,19.22,33.08,30.56,21.25093,330,44.962494,0.9842525,0,0.42913409
ELIZABETH CITY CGAS,NC,36.2606,-76.175,4,January,11.12,31.1,20.66,4.921268,330,17.000744,0,0.9842525,0
HATTIESBURG CHAIN MUNI AP,MS,31.2819,-89.2531,46,January,29.12,48.02,40.64,10.513618,330,29.08022,0,0,0.98031549
HATTIESBURG CHAIN MUNI AP,MS,31.2819,-89.2531,46,January,22.1,35.06,28.76,12.30317,330,31.988242,0,0,0
CHARLESTON YEAGER AP,WV,38.3794,-81.59,277.4,January,14.18,24.26,20.48,6.039738,330,16.105968,0.7086618,3.149608,0.01181103
CHARLESTON YEAGER AP,WV,38.3794,-81.59,277.4,August,60.08,86,71.96,1.11847,330,12.079476,0,0,0
ATHENS BEN EPPS AP,GA,33.9481,-83.3275,239.3,January,17.24,39.92,27.68,3.802798,330,14.987498,0,0,0
CHATTANOOGA LOVELL AP,TN,35.0311,-85.2014,204.5,January,33.08,57.92,50.36,10.513618,330,23.935258,0,0,0
COLUMBIA,SC,33.9486,-81.1186,70.4,January,55.94,68,58.28,3.35541,330,14.092722,0,0,1.57086699
MOBILE,AL,30.6794,-88.2397,63.4,January,37.04,62.06,48.2,4.250186,330,16.105968,0,0,0.0393701
MONTGOMERY AP,AL,32.2997,-86.4075,61.6,January,42.98,57.02,55.22,8.94776,330,23.040482,0,0,0
MONTGOMERY AP,AL,32.2997,-86.4075,61.6,January,33.98,59,46.22,4.026492,330,19.908766,0,0,0
NASHVILLE INTL AP,TN,36.1189,-86.6892,182.9,January,26.24,42.98,40.46,9.842536,330,25.053728,0,0,0
WICHITA FALLS MUNI AP,TX,33.9786,-98.4928,310,August,68,87.08,73.58,4.697574,330,14.092722,0,0,0.05118113
HARRISON BOONE CO AP,AR,36.2667,-93.1567,418.8,August,64.94,75.92,71.78,1.789552,330,10.06623,0,0,0.01181103
CONCORDIA MUNI AP,KS,39.5514,-97.6508,447.8,January,1.22,15.26,11.3,9.395148,330,25.948504,0.5118113,1.181103,0.07086618
CONCORDIA MUNI AP,KS,39.5514,-97.6508,447.8,January,31.1,64.94,43.88,9.842536,330,25.053728,0,0,0
BANGOR INTL AP,ME,44.7978,-68.8186,45.1,January,0.14,14.18,10.94,10.737312,330,23.040482,0.5118113,7.9921303,0.01181103
BANGOR INTL AP,ME,44.7978,-68.8186,45.1,January,16.16,33.98,27.32,5.368656,330,21.027236,0,0,0
BANGOR INTL AP,ME,44.7978,-68.8186,45.1,August,57.02,87.08,73.04,3.802798,330,25.948504,0,0,0
MIDDLETOWN HARRISBURG INTL AP,PA,40.1936,-76.7633,95.1,January,20.12,24.26,21.74,11.1847,330,31.093466,0,0,0
MIDDLETOWN HARRISBURG INTL AP,PA,40.1936,-76.7633,95.1,August,60.98,75.92,67.82,2.013246,330,10.961006,0,0,0
MIDDLETOWN HARRISBURG INTL AP,PA,40.1936,-76.7633,95.1,August,64.04,80.96,70.34,4.921268,330,27.96175,0,0,0
NEWARK INTL AP,NJ,40.6825,-74.1694,2.1,January,20.12,26.24,23.54,14.092722,330,27.066974,5.7874047,0,0.31889781
HARTFORD BRADLEY INTL AP,CT,41.9381,-72.6825,57.9,August,59,78.98,69.26,7.82929,330,27.066974,0,0,0
BURLINGTON INTL AP,VT,44.4683,-73.15,100.6,January,10.22,24.26,19.22,5.59235,330,18.119214,0,0,0
BURLINGTON INTL AP,VT,44.4683,-73.15,100.6,January,4.1,15.26,10.4,5.59235,330,27.066974,0.1968505,0,0
CONCORD MUNI AP,NH,43.1953,-71.5011,105.5,January,9.14,28.22,24.62,3.802798,330,16.105968,0.1968505,11.023628,0.01181103
CONCORD MUNI AP,NH,43.1953,-71.5011,105.5,January,-0.76,20.12,14,7.158208,330,23.935258,0,11.81103,0
CONCORD MUNI AP,NH,43.1953,-71.5011,105.5,January,-4.9,19.22,8.96,3.802798,330,19.908766,0,11.023628,0
CONCORD MUNI AP,NH,43.1953,-71.5011,105.5,January,9.14,28.22,20.48,4.250186,330,19.908766,0.3149608,9.055123,0.01968505
CONCORD MUNI AP,NH,43.1953,-71.5011,105.5,August,53.06,78.98,68,8.276678,330,29.974996,0,0,0
MADISON DANE RGNL AP,WI,43.1406,-89.3453,264,January,-4.9,4.1,-1.12,5.59235,330,18.119214,0,1.968505,0
SAULT STE MARIE SANDERSON FLD,MI,46.4794,-84.3572,220.1,January,3.2,15.26,8.96,8.500372,330,31.093466,0.787402,16.141741,0.05118113
SAULT STE MARIE SANDERSON FLD,MI,46.4794,-84.3572,220.1,August,57.02,73.04,65.12,8.500372,330,27.066974,0,0,0.20866153
SAULT STE MARIE SANDERSON FLD,MI,46.4794,-84.3572,220.1,August,53.96,69.98,62.24,7.82929,330,25.053728,0,0,0
SOUTH BEND MICHIANA RGNL AP,IN,41.7072,-86.3164,235.6,January,12.2,17.24,14.18,9.842536,330,21.027236,0.5118113,1.968505,0.01968505
SOUTH BEND MICHIANA RGNL AP,IN,41.7072,-86.3164,235.6,August,53.96,75.02,64.94,6.263432,330,29.08022,0,0,0
MANSFIELD LAHM MUNI AP,OH,40.8203,-82.5178,394.7,August,57.92,77,66.56,4.47388,330,16.105968,0,0,0
DULUTH,MN,46.8369,-92.2097,435.3,January,-8.86,3.2,-3.28,11.632088,330,29.08022,0,9.055123,0
FARGO HECTOR INTL AP,ND,46.9253,-96.8111,274.3,January,28.22,41,31.46,14.763804,330,33.106712,0,1.968505,0.0393701
GRAND FORKS INTL AP,ND,47.9428,-97.1839,256.6,January,-9.76,7.16,5.36,21.25093,330,42.054472,0.7086618,11.023628,0.07086618
INTL FALLS INTL AP,MN,48.5614,-93.3981,360.6,January,-13.9,0.14,-5.08,7.82929,330,21.027236,0,16.929143,0
LA CROSSE MUNI AP,WI,43.8789,-91.2528,198.7,January,0.14,5.18,3.56,10.289924,330,19.01399,0,3.149608,0
MINNEAPOLIS/ST PAUL AP,MN,44.8831,-93.2289,265.8,January,-5.8,4.1,0.5,14.316416,330,27.066974,0,1.181103,0
MINNEAPOLIS/ST PAUL AP,MN,44.8831,-93.2289,265.8,January,15.26,42.08,25.52,10.513618,330,31.988242,0.5905515,1.181103,0.09842525
MINNEAPOLIS/ST PAUL AP,MN,44.8831,-93.2289,265.8,August,66.92,89.06,77.36,7.381902,330,27.066974,0,0,0
ROCHESTER INTL AP,MN,43.9042,-92.4917,397.5,January,-4.9,6.26,-0.04,10.289924,330,25.053728,0,3.149608,0
ROCHESTER INTL AP,MN,43.9042,-92.4917,397.5,August,50,73.04,57.92,12.526864,330,29.08022,0,0,0
DES MOINES INTL AP,IA,41.5339,-93.6531,291.7,January,10.22,35.06,29.84,18.790296,330,36.014734,0,0,0
HURON RGNL AP,SD,44.3981,-98.2231,390.1,January,9.14,31.1,28.04,10.06623,330,29.08022,0.5118113,0,0.03149608
LINCOLN MUNI AP,NE,40.8508,-96.7475,362.7,January,-4.9,12.2,8.42,8.500372,330,25.053728,0,0.9842525,0
NORFOLK KARL STEFAN AP,NE,41.9856,-97.4353,472.7,January,-0.76,17.24,9.68,7.605596,330,23.040482,0,0,0
OMAHA EPPLEY AIRFIELD,NE,41.3103,-95.8992,299.3,January,33.98,39.02,36.86,9.395148,330,29.08022,0,0,0.01181103
OMAHA EPPLEY AIRFIELD,NE,41.3103,-95.8992,299.3,January,8.24,33.98,24.62,22.145706,330,40.041226,0,0,0
OMAHA EPPLEY AIRFIELD,NE,41.3103,-95.8992,299.3,January,6.26,13.1,10.22,11.408394,330,23.040482,0.5118113,0,0.03149608
OMAHA EPPLEY AIRFIELD,NE,41.3103,-95.8992,299.3,January,1.22,11.12,8.78,10.737312,330,25.948504,0,0,0
OMAHA EPPLEY AIRFIELD,NE,41.3103,-95.8992,299.3,August,55.94,75.92,73.58,12.30317,330,31.988242,0,0,0
OMAHA EPPLEY AIRFIELD,NE,41.3103,-95.8992,299.3,August,51.98,80.96,66.02,4.697574,330,18.119214,0,0,0
SIOUX CITY GATEWAY AP,IA,42.3914,-96.3792,333.8,January,6.26,27.14,21.02,22.816788,330,42.054472,0,0,0
SIOUX CITY GATEWAY AP,IA,42.3914,-96.3792,333.8,January,2.12,11.12,6.44,11.632088,330,25.948504,0.1968505,0,0.01968505
SIOUX CITY GATEWAY AP,IA,42.3914,-96.3792,333.8,January,-0.76,11.12,7.34,11.408394,330,27.066974,0,0,0
SIOUX CITY GATEWAY AP,IA,42.3914,-96.3792,333.8,August,50,73.94,68.54,14.54011,330,35.119958,0,0,0
SIOUX FALLS,SD,43.5878,-96.7289,435.9,January,0.14,12.2,7.88,5.816044,330,14.987498,0,0,0
HONOLULU INTL AP,HI,21.3239,-157.9294,2.1,January,62.96,78.98,70.34,6.487126,330,23.040482,0,0,0
ROSWELL IND AIR PK,NM,33.3075,-104.5083,1112.2,January,21.2,77,47.3,6.039738,330,27.96175,0,0,0
LUBBOCK,TX,33.6542,-101.8136,993.3,August,64.04,86,74.66,4.921268,330,31.988242,0,0,0
CLAYTON MUNI AIR PK,NM,36.4486,-103.1539,1511.8,August,55.94,71.06,62.78,11.632088,330,33.106712,0,0,0.90157529
ALAMOSA SAN LUIS AP,CO,37.4389,-105.8614,2296.1,August,50,73.04,59.54,7.158208,330,44.067718,0,0,0.05905515
ALAMOSA SAN LUIS AP,CO,37.4389,-105.8614,2296.1,August,46.94,75.02,57.56,5.368656,330,29.974996,0,0,0.01181103
GRAND JUNCTION WALKER FLD,CO,39.1342,-108.54,1480.7,August,66.02,84.92,75.56,7.605596,330,27.96175,0,0,0
GRAND JUNCTION WALKER FLD,CO,39.1342,-108.54,1480.7,August,59,89.96,73.58,7.605596,330,25.948504,0,0,0.01181103
BAKERSFIELD AP,CA,35.4344,-119.0542,149,January,44.96,57.92,55.94,6.039738,330,19.908766,0,0,0.16929143
BISHOP AP,CA,37.3711,-118.3581,1250.3,August,60.98,91.04,74.48,6.71082,330,27.066974,0,0,0
SAN DIEGO LINDBERGH FLD,CA,32.7336,-117.1831,4.6,August,71.06,84.02,75.56,4.250186,330,12.079476,0,0,0
SANTA MARIA PUBLIC AP,CA,34.8994,-120.4486,73.8,January,37.94,75.02,53.24,2.908022,330,10.961006,0,0,0
SANTA MARIA PUBLIC AP,CA,34.8994,-120.4486,73.8,August,59,86,70.52,5.368656,330,19.01399,0,0,0
PIERRE RGNL AP,SD,44.3814,-100.2856,531,August,51.08,71.96,62.96,9.618842,330,25.948504,0,0,0
VALENTINE MILLER FLD,NE,42.8783,-100.55,789.4,January,-0.76,12.2,7.7,13.869028,330,35.119958,0,0,0
VALENTINE MILLER FLD,NE,42.8783,-100.55,789.4,August,59,84.02,70.34,8.052984,330,35.119958,0,0,0.01968505
VALENTINE MILLER FLD,NE,42.8783,-100.55,789.4,August,59,86,70.16,8.94776,330,23.040482,0,0,0
RAPID CITY RGNL AP,SD,44.0433,-103.0536,963.2,January,-13.9,5.18,-0.04,8.724066,330,31.093466,0.1181103,5.118113,0
RAPID CITY RGNL AP,SD,44.0433,-103.0536,963.2,August,57.02,75.02,68.18,11.632088,330,44.067718,0,0,0
SALT LAKE CITY INTL AP,UT,40.7781,-111.9694,1287.8,January,19.22,30.2,23.54,6.039738,330,23.040482,6.8110273,7.87402,0.29133874
SALT LAKE CITY INTL AP,UT,40.7781,-111.9694,1287.8,January,-4.9,17.24,7.16,5.368656,330,12.974252,0,9.055123,0
SALT LAKE CITY INTL AP,UT,40.7781,-111.9694,1287.8,January,35.06,50,43.52,14.316416,330,42.949248,0,3.93701,0.09055123
GREAT FALLS INTL AP,MT,47.4733,-111.3822,1116.8,August,55.04,69.08,64.76,10.289924,330,25.053728,0,0,0
GREAT FALLS INTL AP,MT,47.4733,-111.3822,1116.8,August,50,75.92,67.28,10.06623,330,29.974996,0,0,0.03149608
LEWISTON NEZ PERCE CO AP,ID,46.3747,-117.0156,437.7,August,66.02,102.02,83.84,3.131716,330,14.092722,0,0,0
PENDLETON,OR,45.6906,-118.8528,461.8,August,66.02,96.98,80.06,8.052984,330,16.105968,0,0,0
POCATELLO RGNL AP,ID,42.9203,-112.5711,1364.9,January,9.14,25.16,14.9,4.250186,330,14.092722,0,9.055123,0
SPOKANE INTL AP,WA,47.6217,-117.5281,717.2,August,66.02,95,81.14,7.605596,330,21.027236,0,0,0
RED BLUFF MUNI AP,CA,40.1519,-122.2536,107.6,January,31.1,62.06,44.78,4.697574,330,12.974252,0,0,0
PORTLAND INTL AP,OR,45.5908,-122.6003,5.8,August,62.96,93.92,76.1,5.59235,330,14.987498,0,0,0
SALEM MCNARY FLD,OR,44.905,-123.0011,62.5,January,23.18,29.12,26.96,6.934514,330,14.092722,2.9921276,0,0.27165369
YAKIMA AIR TERMINAL,WA,46.5683,-120.5428,324.3,January,-2.74,23.18,7.88,5.59235,330,17.000744,1.6141741,7.086618,0.11023628
ANNETTE ISLAND AP,AK,55.0389,-131.5786,33.2,January,24.26,44.06,32.36,4.250186,330,14.092722,0,0,0
ANNETTE ISLAND AP,AK,55.0389,-131.5786,33.2,January,22.1,42.08,31.64,3.131716,330,14.987498,0,0,0
ANNETTE ISLAND AP,AK,55.0389,-131.5786,33.2,August,55.04,78.08,64.04,7.381902,330,21.027236,0,0,0
JUNEAU INTL AP,AK,58.3567,-134.5639,4.9,August,46.94,73.04,59.18,3.802798,330,14.987498,0,0,0
KING SALMON,AK,58.6794,-156.6294,19.2,January,18.14,27.14,21.74,2.23694,330,10.06623,0,0,0
COLD BAY AP,AK,55.2208,-162.7325,23.8,January,18.14,35.06,26.6,5.144962,330,12.079476,0,0,0
FAIRBANKS INTL AP,AK,64.8039,-147.8761,131.7,January,-26.86,-13.9,-22,0.447388,330,6.934514,0,20.078751,0
FAIRBANKS INTL AP,AK,64.8039,-147.8761,131.7,August,55.04,59,59.9,2.460634,330,12.079476,0,0,0.16141741
ANCHORAGE INTL AP,AK,61.1689,-150.0278,36.6,January,5.18,17.24,13.1,2.013246,330,10.06623,0,9.842525,0
ANCHORAGE INTL AP,AK,61.1689,-150.0278,36.6,January,-0.76,17.24,11.66,2.908022,330,19.01399,0,9.055123,0
MCGRATH AP,AK,62.9575,-155.6103,101.5,January,-22.9,-13.9,-19.84,0.894776,330,4.921268,0,11.81103,0
BETTLES AP,AK,66.9161,-151.5089,195.7,January,-26.86,-14.8,-15.16,2.23694,330,10.961006,0,20.078751,0
JACKSONVILLE CRAIG MUNI AP,FL,30.3361,-81.5147,12.5,January,42.98,60.98,52.52,9.171454,330,25.053728,0,0,0
ALABASTER SHELBY CO AP,AL,33.1783,-86.7817,172.2,January,37.04,55.94,50.54,6.934514,330,21.027236,0,0,0
ALABASTER SHELBY CO AP,AL,33.1783,-86.7817,172.2,January,19.22,32,25.16,11.1847,330,29.08022,0,0,0
DOUGLAS BISBEE INL AP,AZ,31.4583,-109.6061,1251.2,August,68,91.04,76.82,6.934514,330,25.053728,0,0,0
COLORADO SPRINGS MUNI AP,CO,38.81,-104.6883,1884,August,55.94,82.04,69.44,9.171454,330,27.96175,0,0,0
HAYWARD AIR TERMINAL,CA,37.6542,-122.115,13.1,January,35.96,51.98,48.38,5.144962,330,18.119214,0,0,0
SALISBURY WICOMICO RGNL AP,MD,38.3406,-75.5103,14.6,August,60.98,80.96,76.46,7.381902,330,25.053728,0,0,0
BALTIMORE WASH INTL AP,MD,39.1667,-76.6833,47.5,August,69.08,89.96,76.46,3.35541,330,31.988242,0,0,0.68110273
WALLOPS ISLAND FLIGHT FAC,VA,37.9406,-75.4631,11.6,August,64.94,78.08,72.86,4.921268,330,14.092722,0,0,0.77165396
DAYTON INTL AP,OH,39.9061,-84.2186,304.8,January,8.24,20.12,17.78,9.618842,330,21.027236,1.1023628,0,0.07086618
TUPELO RGNL AP,MS,34.2622,-88.7714,110,January,22.1,31.1,29.3,16.105968,330,29.08022,0,0,0
QUINCY RGNL AP,IL,39.9369,-91.1919,234.4,August,53.96,77,66.92,9.395148,330,27.96175,0,0,0
HAVRE CITY CO AP,MT,48.5428,-109.7633,787.9,January,11.12,28.22,24.8,8.724066,330,21.027236,0,1.181103,0
BRIDGEPORT SIKORSKY MEM AP,CT,41.1583,-73.1289,1.5,January,27.14,39.02,33.62,7.158208,330,25.053728,0,0,0
TOLEDO EXPRESS AP,OH,41.5886,-83.8014,203.9,August,55.94,77,63.68,7.605596,330,25.053728,0,0,0.03149608
CHICAGO OHARE INTL AP,IL,41.995,-87.9336,200.6,January,0.14,18.14,6.44,10.737312,330,27.066974,0,0,0
ALPENA CO RGNL AP,MI,45.0717,-83.5644,208.5,January,0.14,17.24,9.86,7.605596,330,21.027236,0.787402,3.149608,0.07086618
ALPENA CO RGNL AP,MI,45.0717,-83.5644,208.5,August,51.98,84.02,67.64,5.368656,330,25.053728,0,0,0
WATERLOO MUNI AP,IA,42.5544,-92.4011,264.6,August,60.08,86,73.22,4.921268,330,17.000744,0,0,0
DENVER INTL AP,CO,39.8328,-104.6575,1650.2,August,51.08,91.94,66.2,6.934514,320,61.963238,0,0,0.01181103
MACON MIDDLE GA RGNL AP,GA,32.6847,-83.6528,104.5,January,21.2,42.98,29.84,6.71082,320,19.908766,0,0,0
MACON MIDDLE GA RGNL AP,GA,32.6847,-83.6528,104.5,January,35.06,60.08,47.3,7.82929,320,29.08022,0,0,0
PADUCAH,KY,37.0683,-88.7719,119.5,January,37.04,57.92,55.04,8.724066,320,25.948504,0,0,0.01968505
SAVANNAH INTL AP,GA,32.13,-81.21,14,January,27.14,44.96,34.7,7.82929,320,21.027236,0,0,0
BECKLEY RALEIGH CO AP,WV,37.7836,-81.1231,766.3,January,6.26,14.18,10.94,10.289924,320,25.948504,2.9921276,5.905515,0.11023628
BECKLEY RALEIGH CO AP,WV,37.7836,-81.1231,766.3,January,0.14,13.1,7.16,8.500372,320,25.948504,0.1181103,3.93701,0
JACKSON,KY,37.5908,-83.3131,415.7,August,62.06,78.08,71.42,1.342164,320,19.01399,0,0,0.16929143
LONGVIEW E TX RGNL AP,TX,32.3847,-94.7117,111.3,January,39.92,69.08,56.66,11.632088,320,29.08022,0,0,0
LONGVIEW E TX RGNL AP,TX,32.3847,-94.7117,111.3,January,35.96,42.98,40.28,5.816044,320,23.935258,0,0,0
LONGVIEW E TX RGNL AP,TX,32.3847,-94.7117,111.3,January,15.26,39.92,24.98,4.921268,320,17.000744,0,0,0
LAKE CHARLES,LA,30.125,-93.2158,4,January,51.98,75.02,62.42,7.381902,320,23.935258,0,0,0
COLUMBIA RGNL AP,MO,38.8169,-92.2183,272.2,January,9.14,19.22,17.06,10.06623,320,21.922012,0.9842525,1.181103,0.05905515
COLUMBIA RGNL AP,MO,38.8169,-92.2183,272.2,January,1.22,13.1,8.42,6.934514,320,21.922012,0,1.181103,0
COLUMBIA RGNL AP,MO,38.8169,-92.2183,272.2,August,66.02,89.96,77.18,8.724066,320,27.96175,0,0,0
KANSAS CITY INTL AP,MO,39.2972,-94.7306,306.3,January,-3.82,13.1,4.1,5.816044,320,12.079476,0,1.968505,0
KANSAS CITY INTL AP,MO,39.2972,-94.7306,306.3,January,0.14,22.1,9.5,7.158208,320,14.092722,0,1.181103,0
KANSAS CITY INTL AP,MO,39.2972,-94.7306,306.3,August,62.96,80.96,75.38,9.171454,320,23.040482,0,0,0
ISLIP LI MACARTHUR AP,NY,40.7939,-73.1017,25.6,August,62.96,80.06,69.98,6.934514,320,21.027236,0,0,0
ORLANDO INTL AP,FL,28.4339,-81.325,27.4,January,42.08,62.06,53.78,7.381902,320,27.066974,0,0,0
ORLANDO INTL AP,FL,28.4339,-81.325,27.4,August,73.04,91.94,80.42,5.144962,320,23.040482,0,0,0
GAINESVILLE RGNL AP,FL,29.6919,-82.2756,37.5,January,35.06,68,55.04,11.408394,320,27.96175,0,0,0.31102379
DAYTONA BEACH INTL AP,FL,29.1828,-81.0483,9.4,August,73.94,93.02,81.14,4.026492,320,19.01399,0,0,0
PORT ARTHUR SE TX AP,TX,29.9506,-94.0206,4.9,January,55.94,73.04,69.26,8.94776,320,36.90951,0,0,0.64960665
PORT ARTHUR SE TX AP,TX,29.9506,-94.0206,4.9,January,48.92,77,61.34,7.605596,320,27.96175,0,0,0
SAN ANTONIO INTL AP,TX,29.5442,-98.4839,240.5,January,53.06,75.02,62.06,5.59235,320,19.908766,0,0,0
HOUSTON INTERCONT AP,TX,29.98,-95.36,29,August,75.02,93.02,81.68,4.697574,320,25.948504,0,0,1.2598432
PIEDMONT TRIAD INTL AP,NC,36.0969,-79.9433,271.3,January,35.96,57.02,51.44,10.737312,320,33.106712,0,0,0
PHILADELPHIA INTL AP,PA,39.8683,-75.2311,3,January,20.12,26.24,24.08,12.974252,320,25.948504,2.9921276,1.968505,0.14173236
ROANOKE RGNL AP,VA,37.3169,-79.9742,358.1,January,14.18,24.26,23.54,10.06623,320,25.948504,4.0157502,3.93701,0.29921276
ROANOKE RGNL AP,VA,37.3169,-79.9742,358.1,January,25.16,37.94,32.54,10.289924,320,40.041226,0,0,0
WASHINGTON REAGAN AP,VA,38.8483,-77.0342,3,January,19.22,27.14,25.16,14.763804,320,29.974996,0.393701,0,0.01181103
WASHINGTON REAGAN AP,VA,38.8483,-77.0342,3,January,30.2,39.02,36.32,10.06623,320,33.106712,0.9842525,1.181103,0.07086618
WILMINGTON NEW CASTLE CO AP,DE,39.6728,-75.6008,24.1,August,59,80.06,69.98,4.697574,320,12.974252,0,0,0
ELIZABETH CITY CGAS,NC,36.2606,-76.175,4,January,30.2,46.94,40.82,5.816044,320,14.987498,0,0,0
HATTIESBURG CHAIN MUNI AP,MS,31.2819,-89.2531,46,January,57.92,73.04,64.94,4.47388,320,48.09421,0,0,2.61811165
CHARLESTON YEAGER AP,WV,38.3794,-81.59,277.4,January,11.12,17.24,14,7.605596,320,27.066974,0,1.968505,0
CHARLESTON YEAGER AP,WV,38.3794,-81.59,277.4,August,64.94,84.92,74.66,6.934514,320,25.053728,0,0,0.0393701
ALMA BACON CO AP,GA,31.5358,-82.5067,58.8,January,30.2,48.02,43.88,11.1847,320,31.988242,0,0,0.72047283
ALMA BACON CO AP,GA,31.5358,-82.5067,58.8,January,37.04,60.08,48.74,6.934514,320,33.106712,0,0,0
ATLANTA HARTSFIELD INTL AP,GA,33.63,-84.4417,307.8,January,31.1,46.04,39.92,11.408394,320,25.053728,0,0,0.46850419
ATLANTA HARTSFIELD INTL AP,GA,33.63,-84.4417,307.8,January,21.2,31.1,27.68,18.342908,320,36.90951,0,0,0.01181103
ATLANTA HARTSFIELD INTL AP,GA,33.63,-84.4417,307.8,August,69.08,87.08,75.74,6.263432,320,23.040482,0,0,0.01181103
BRISTOL TRI CITY AP,TN,36.4731,-82.4044,457.2,August,57.92,80.06,70.88,2.684328,320,14.092722,0,0,0
CHATTANOOGA LOVELL AP,TN,35.0311,-85.2014,204.5,January,29.12,39.92,34.88,4.026492,320,19.908766,0,0,0
COLUMBIA,SC,33.9486,-81.1186,70.4,January,24.26,39.02,30.74,4.697574,320,17.000744,0,0,0
COLUMBIA,SC,33.9486,-81.1186,70.4,August,75.02,80.06,77.54,4.697574,320,16.105968,0,0,0.1181103
JACKSONVILLE,FL,30.4844,-81.7019,10.1,January,33.98,66.02,54.14,12.526864,320,31.988242,0,0,0.6299216
MONTGOMERY AP,AL,32.2997,-86.4075,61.6,January,24.26,35.96,31.28,13.197946,320,31.093466,0,0,0
NASHVILLE INTL AP,TN,36.1189,-86.6892,182.9,August,73.04,80.96,75.92,5.144962,320,21.922012,0,0,0.72834685
DALLAS LOVE FLD,TX,32.8519,-96.8556,134.1,January,33.08,60.98,54.68,11.408394,320,29.974996,0,0,0
HARRISON BOONE CO AP,AR,36.2667,-93.1567,418.8,January,25.16,50,44.96,7.82929,320,27.066974,0,0,0
HARRISON BOONE CO AP,AR,36.2667,-93.1567,418.8,January,10.22,19.22,14.72,8.052984,320,21.027236,0.3149608,0,0
HARRISON BOONE CO AP,AR,36.2667,-93.1567,418.8,August,60.08,82.04,70.88,4.47388,320,14.987498,0,0,0
ST LOUIS LAMBERT INTL AP,MO,38.7525,-90.3736,161.8,January,24.26,48.92,45.32,12.079476,320,29.08022,0,0,0.0393701
SPRINGFIELD,MO,37.2353,-93.4003,389.5,August,57.92,75.02,65.66,15.211192,320,36.90951,0,0,1.77952852
TOPEKA MUNI AP,KS,39.0725,-95.6261,267,January,-0.76,26.24,10.58,3.802798,320,14.987498,0,1.968505,0
TOPEKA MUNI AP,KS,39.0725,-95.6261,267,August,64.04,89.06,75.02,1.565858,320,29.08022,0,0,0
BANGOR INTL AP,ME,44.7978,-68.8186,45.1,January,-7.78,11.12,2.3,4.026492,320,18.119214,0,7.9921303,0
MIDDLETOWN HARRISBURG INTL AP,PA,40.1936,-76.7633,95.1,August,64.04,77,71.24,9.171454,320,31.093466,0,0,0.01181103
NEW YORK LAGUARDIA AP,NY,40.7794,-73.8803,3.4,January,28.22,35.06,32.18,9.395148,320,19.908766,1.2992133,1.181103,0.0393701
NEW YORK LAGUARDIA AP,NY,40.7794,-73.8803,3.4,January,17.24,24.26,20.66,9.618842,320,23.935258,0,5.118113,0
NEWARK INTL AP,NJ,40.6825,-74.1694,2.1,January,25.16,33.98,30.38,8.724066,320,23.935258,1.6141741,1.181103,0.05905515
NEWARK INTL AP,NJ,40.6825,-74.1694,2.1,August,64.94,80.06,70.34,8.052984,320,19.908766,0,0,0
ALBANY AP,NY,42.7431,-73.8092,95.1,January,20.12,37.94,35.42,6.934514,320,27.066974,0.1181103,1.181103,0.0393701
ALBANY AP,NY,42.7431,-73.8092,95.1,January,11.12,21.2,16.88,4.921268,320,16.105968,0,0,0
HARTFORD BRADLEY INTL AP,CT,41.9381,-72.6825,57.9,January,9.14,23.18,17.06,8.500372,320,17.000744,0,3.1102379,0
BURLINGTON INTL AP,VT,44.4683,-73.15,100.6,January,14.18,28.22,24.44,8.276678,320,19.908766,0.1968505,1.181103,0
BURLINGTON INTL AP,VT,44.4683,-73.15,100.6,August,57.02,77,65.66,3.579104,320,23.935258,0,0,0.46850419
PORTLAND INTL JETPORT,ME,43.6497,-70.3003,13.7,January,19.22,35.06,28.58,6.71082,320,18.119214,0,0,0
PROVIDENCE T F GREEN AP,RI,41.7219,-71.4325,18.3,January,22.1,32,28.22,5.368656,320,16.105968,3.3858286,0,0.12992133
CLEVELAND,OH,41.4131,-81.86,232.6,August,62.96,87.98,76.46,5.368656,320,18.119214,0,0,0
COLUMBUS PORT COLUMBUS INTL AP,OH,39.9914,-82.8808,246.9,January,29.12,48.02,39.38,3.802798,320,17.000744,0,0,0
FLINT BISHOP INTL AP,MI,42.9667,-83.7494,234.7,August,62.06,84.02,74.3,6.263432,320,31.093466,0,0,1.14960692
FLINT BISHOP INTL AP,MI,42.9667,-83.7494,234.7,August,51.98,77,64.04,4.921268,320,31.988242,0,0,0
LANSING CAPITAL CITY AP,MI,42.7803,-84.5789,256.3,August,57.92,84.02,71.06,4.921268,320,29.974996,0,0,0
MADISON DANE RGNL AP,WI,43.1406,-89.3453,264,January,2.12,11.12,9.86,11.408394,320,27.96175,0,1.968505,0
MADISON DANE RGNL AP,WI,43.1406,-89.3453,264,August,53.06,71.06,59.72,9.618842,320,31.988242,0,0,0.03149608
SAULT STE MARIE SANDERSON FLD,MI,46.4794,-84.3572,220.1,January,8.24,19.22,14.54,12.750558,320,31.093466,3.7007894,16.929143,0.14173236
MANSFIELD LAHM MUNI AP,OH,40.8203,-82.5178,394.7,August,55.04,73.94,62.96,6.263432,320,31.988242,0,0,0.18897648
FARGO HECTOR INTL AP,ND,46.9253,-96.8111,274.3,January,13.1,22.1,19.22,12.526864,320,23.935258,9.2126034,9.842525,0.59842552
FARGO HECTOR INTL AP,ND,46.9253,-96.8111,274.3,August,60.08,84.02,74.48,9.618842,320,27.96175,0,0,0
GRAND FORKS INTL AP,ND,47.9428,-97.1839,256.6,January,24.26,37.04,28.04,10.737312,320,23.040482,0.3149608,3.93701,0.03149608
INTL FALLS INTL AP,MN,48.5614,-93.3981,360.6,January,-5.8,19.22,14.18,6.71082,320,34.001488,0.7086618,14.173236,0.01968505
INTL FALLS INTL AP,MN,48.5614,-93.3981,360.6,August,44.06,75.02,59.54,4.026492,320,21.922012,0,0,0.57874047
MINNEAPOLIS/ST PAUL AP,MN,44.8831,-93.2289,265.8,August,57.02,82.04,67.64,2.460634,320,16.105968,0,0,0
MOLINE QUAD CITY INTL AP,IL,41.4653,-90.5233,180.4,January,1.22,10.22,5.36,8.052984,320,23.040482,0,0,0
MOLINE QUAD CITY INTL AP,IL,41.4653,-90.5233,180.4,January,4.1,22.1,10.4,9.171454,320,25.948504,0,0,0
ROCHESTER INTL AP,MN,43.9042,-92.4917,397.5,August,50,68,64.94,14.54011,320,36.90951,0,0,2.01181211
ABERDEEN,SD,45.4558,-98.4131,396.8,January,-7.78,8.24,4.82,17.224438,320,29.974996,0,3.149608,0
ABERDEEN,SD,45.4558,-98.4131,396.8,January,-13.9,-2.74,-7.24,10.289924,320,25.948504,0,3.149608,0
DES MOINES INTL AP,IA,41.5339,-93.6531,291.7,January,4.1,12.2,9.86,11.632088,320,27.96175,0,0,0
DES MOINES INTL AP,IA,41.5339,-93.6531,291.7,January,8.24,23.18,14,6.263432,320,19.908766,0,0,0
GRAND ISLAND AP,NE,40.9611,-98.3136,560.8,January,29.12,42.98,37.22,7.605596,320,17.000744,0,0,0
HURON RGNL AP,SD,44.3981,-98.2231,390.1,January,-5.8,9.14,7.88,19.685072,320,34.001488,0,1.181103,0
HURON RGNL AP,SD,44.3981,-98.2231,390.1,January,-8.86,1.22,-3.64,11.408394,320,27.066974,0,1.181103,0
LINCOLN MUNI AP,NE,40.8508,-96.7475,362.7,January,33.08,46.04,41,6.71082,320,19.908766,0,0,0
NORFOLK KARL STEFAN AP,NE,41.9856,-97.4353,472.7,January,3.2,18.14,16.52,21.027236,320,44.067718,0,0,0
SIOUX CITY GATEWAY AP,IA,42.3914,-96.3792,333.8,January,27.14,35.96,33.98,10.513618,320,38.02798,0,0,0.03149608
SIOUX CITY GATEWAY AP,IA,42.3914,-96.3792,333.8,January,3.2,20.12,13.46,6.934514,320,18.119214,0,0,0
SIOUX CITY GATEWAY AP,IA,42.3914,-96.3792,333.8,August,64.04,89.06,75.38,5.144962,320,40.936002,0,0,0.05118113
SIOUX CITY GATEWAY AP,IA,42.3914,-96.3792,333.8,August,48.92,78.98,62.96,5.59235,320,17.000744,0,0,0
SIOUX FALLS,SD,43.5878,-96.7289,435.9,January,-5.8,4.1,0.86,10.961006,320,27.066974,0,0,0
HILO INTL AP,HI,19.7192,-155.0531,11.6,January,64.04,75.92,69.08,4.697574,320,14.092722,0,0,0.03149608
CHILDRESS MUNI AP,TX,34.4272,-100.2831,594.7,August,71.96,87.98,80.42,10.737312,320,38.922756,0,0,0.09055123
ROSWELL IND AIR PK,NM,33.3075,-104.5083,1112.2,January,30.2,62.06,42.8,3.802798,320,12.974252,0,0,0
EL PASO INTL AP,TX,31.8111,-106.3758,1194.2,January,30.2,68,46.58,6.039738,320,38.922756,0,0,0
AMARILLO,TX,35.2333,-101.7089,1093.3,January,3.2,21.2,12.56,8.276678,320,19.01399,2.2047256,3.149608,0.1181103
AMARILLO,TX,35.2333,-101.7089,1093.3,August,62.96,87.08,72.5,10.513618,320,25.948504,0,0,0.61023655
GRAND JUNCTION WALKER FLD,CO,39.1342,-108.54,1480.7,January,17.24,24.26,19.76,1.11847,320,6.934514,0.787402,1.968505,0.05905515
GRAND JUNCTION WALKER FLD,CO,39.1342,-108.54,1480.7,January,17.24,37.04,23.54,4.697574,320,27.066974,0,1.968505,0.29921276
GRAND JUNCTION WALKER FLD,CO,39.1342,-108.54,1480.7,January,21.2,46.04,32,3.579104,320,17.000744,0,0,0
LONG BEACH DAUGHERTY FLD,CA,33.8117,-118.1464,9.4,January,46.94,60.08,52.16,0.894776,320,10.06623,0,0,0
BAKERSFIELD AP,CA,35.4344,-119.0542,149,January,53.06,64.04,62.96,7.605596,320,27.96175,0,0,0.22834658
BAKERSFIELD AP,CA,35.4344,-119.0542,149,August,71.96,100.94,86.72,6.71082,320,18.119214,0,0,0
BAKERSFIELD AP,CA,35.4344,-119.0542,149,August,73.94,102.02,87.44,6.487126,320,21.027236,0,0,0
LAS VEGAS MCCARRAN AP,NV,36.0719,-115.1633,649.5,August,73.94,93.92,88.52,7.158208,320,34.001488,0,0,0.20866153
PHOENIX SKY HARBOR INTL AP,AZ,33.4278,-112.0039,337.4,August,82.94,107.06,95.72,5.816044,320,21.027236,0,0,0
RENO TAHOE INTL AP,NV,39.4839,-119.7711,1344.2,August,69.98,104,86.18,7.605596,320,36.90951,0,0,0
SAN DIEGO LINDBERGH FLD,CA,32.7336,-117.1831,4.6,January,51.98,62.06,56.48,2.460634,320,12.079476,0,0,0
SAN DIEGO LINDBERGH FLD,CA,32.7336,-117.1831,4.6,January,48.92,64.94,56.48,2.908022,320,14.987498,0,0,0
SACRAMENTO EXECUTIVE AP,CA,38.5069,-121.495,4.6,January,35.06,48.92,45.32,6.934514,320,18.119214,0,0,0
BISMARCK,ND,46.7708,-100.7603,505.4,January,3.2,15.26,13.82,14.54011,320,29.08022,7.7952798,14.173236,0.29921276
BISMARCK,ND,46.7708,-100.7603,505.4,January,-13.9,3.2,-0.22,14.54011,320,29.974996,0,20.866153,0
BISMARCK,ND,46.7708,-100.7603,505.4,January,-8.86,2.12,-5.8,8.724066,320,21.027236,0,18.897648,0
BISMARCK,ND,46.7708,-100.7603,505.4,January,32,42.98,37.76,15.882274,320,48.09421,0,14.960638,0
BISMARCK,ND,46.7708,-100.7603,505.4,January,16.16,35.06,32.54,15.211192,320,33.106712,0.1181103,14.960638,0.01181103
BISMARCK,ND,46.7708,-100.7603,505.4,August,55.94,64.04,64.04,6.934514,320,29.08022,0,0,0.77952798
BISMARCK,ND,46.7708,-100.7603,505.4,August,53.96,78.98,67.64,8.724066,320,34.001488,0,0,0.01968505
NORTH PLATTE RGNL AP,NE,41.1214,-100.6694,846.7,January,23.18,60.08,38.48,8.724066,320,25.948504,0,0,0
PIERRE RGNL AP,SD,44.3814,-100.2856,531,January,6.26,26.24,23.18,15.434886,320,36.014734,1.181103,1.968505,0.1181103
PIERRE RGNL AP,SD,44.3814,-100.2856,531,January,-3.82,6.26,4.82,19.237684,320,34.001488,0,3.93701,0
PIERRE RGNL AP,SD,44.3814,-100.2856,531,January,-8.86,3.2,-3.28,10.513618,320,27.066974,0,3.93701,0
PIERRE RGNL AP,SD,44.3814,-100.2856,531,January,-3.82,3.2,0.32,12.526864,320,29.08022,0,3.93701,0
PIERRE RGNL AP,SD,44.3814,-100.2856,531,January,-5.8,10.22,-0.22,9.842536,320,21.027236,0,3.149608,0
PIERRE RGNL AP,SD,44.3814,-100.2856,531,January,3.2,24.26,10.94,17.671826,320,42.949248,0,3.149608,0
PIERRE RGNL AP,SD,44.3814,-100.2856,531,August,57.02,82.94,70.88,10.737312,320,31.988242,0,0,0
SCOTTSBLUFF HEILIG AP,NE,41.8706,-103.5931,1202.4,January,-21.82,11.12,-7.6,7.82929,320,16.105968,0,7.086618,0
SCOTTSBLUFF HEILIG AP,NE,41.8706,-103.5931,1202.4,August,57.02,84.92,72.86,8.94776,320,35.119958,0,0,0.11023628
SCOTTSBLUFF HEILIG AP,NE,41.8706,-103.5931,1202.4,August,57.92,80.96,68,6.71082,320,29.974996,0,0,0.5511814
VALENTINE MILLER FLD,NE,42.8783,-100.55,789.4,January,7.16,25.16,23.18,10.513618,320,38.922756,0,0,0
VALENTINE MILLER FLD,NE,42.8783,-100.55,789.4,January,-0.76,10.22,2.84,7.82929,320,21.027236,0,0,0.05118113
VALENTINE MILLER FLD,NE,42.8783,-100.55,789.4,January,6.26,33.08,17.96,14.316416,320,31.988242,0,0,0
SALT LAKE CITY INTL AP,UT,40.7781,-111.9694,1287.8,August,71.96,100.04,86.54,6.263432,320,21.027236,0,0,0
GREAT FALLS INTL AP,MT,47.4733,-111.3822,1116.8,August,53.96,86,71.78,8.724066,320,29.974996,0,0,0
HELENA RGNL AP,MT,46.6056,-111.9636,1166.8,January,2.12,16.16,11.3,7.82929,320,21.922012,1.8110246,3.93701,0.07086618
HELENA RGNL AP,MT,46.6056,-111.9636,1166.8,January,-5.8,8.24,-0.94,1.11847,320,6.039738,0,5.118113,0
HELENA RGNL AP,MT,46.6056,-111.9636,1166.8,August,59,75.92,69.26,10.513618,320,23.935258,0,0,0
MISSOULA INTL AP,MT,46.9208,-114.0925,972.9,January,17.24,32,21.56,3.131716,320,16.105968,1.6141741,14.960638,0.16929143
MISSOULA INTL AP,MT,46.9208,-114.0925,972.9,January,19.22,35.96,32.18,10.289924,320,25.053728,1.4173236,11.81103,0.05118113
EUREKA WFO WOODLEY ISLAND,CA,40.8097,-124.1603,6.1,August,55.94,64.94,58.46,3.802798,320,8.94776,0,0,0
RED BLUFF MUNI AP,CA,40.1519,-122.2536,107.6,January,33.08,42.08,38.84,6.71082,320,14.092722,0,0,0.90944931
MEDFORD ROGUE VLY AP,OR,42.3811,-122.8722,395.3,January,23.18,44.06,27.86,2.908022,320,14.092722,0.1968505,3.93701,0.05905515
OLYMPIA AP,WA,46.9733,-122.9033,57.3,August,48.92,87.98,67.1,3.802798,320,16.105968,0,0,0
OLYMPIA AP,WA,46.9733,-122.9033,57.3,August,51.98,84.92,68.18,3.579104,320,14.092722,0,0,0
PORTLAND INTL AP,OR,45.5908,-122.6003,5.8,August,64.94,102.92,82.4,6.039738,320,19.01399,0,0,0
PORTLAND INTL AP,OR,45.5908,-122.6003,5.8,August,66.02,105.08,83.12,3.802798,320,14.092722,0,0,0
PORTLAND INTL AP,OR,45.5908,-122.6003,5.8,August,64.04,96.08,82.22,4.47388,320,18.119214,0,0,0
PORTLAND INTL AP,OR,45.5908,-122.6003,5.8,August,59,89.06,73.04,4.921268,320,14.092722,0,0,0
REDMOND ROBERTS FLD,OR,44.2558,-121.1392,927.5,August,51.08,100.04,78.8,6.934514,320,21.922012,0,0,0
REDMOND ROBERTS FLD,OR,44.2558,-121.1392,927.5,August,48.02,95,74.84,6.934514,320,21.922012,0,0,0
SEATTLE TACOMA INTL AP,WA,47.4444,-122.3139,112.8,August,57.92,82.04,69.08,4.47388,320,14.987498,0,0,0
YAKIMA AIR TERMINAL,WA,46.5683,-120.5428,324.3,August,59,102.92,82.22,5.59235,320,25.053728,0,0,0
YAKIMA AIR TERMINAL,WA,46.5683,-120.5428,324.3,August,60.98,98.06,79.52,6.71082,320,19.01399,0,0,0
REDDING MUNI AP,CA,40.5175,-122.2986,151.5,January,35.06,53.06,43.88,0.894776,320,6.934514,0,0,0
ANNETTE ISLAND AP,AK,55.0389,-131.5786,33.2,January,30.2,44.06,36.32,5.144962,320,21.922012,0,0,0
ANNETTE ISLAND AP,AK,55.0389,-131.5786,33.2,January,25.16,39.92,35.42,3.802798,320,14.987498,0,0,0
ANNETTE ISLAND AP,AK,55.0389,-131.5786,33.2,August,55.04,82.04,66.92,4.250186,320,17.000744,0,0,
ANNETTE ISLAND AP,AK,55.0389,-131.5786,33.2,August,62.06,82.94,71.24,9.395148,320,19.01399,0,0,0
ANNETTE ISLAND AP,AK,55.0389,-131.5786,33.2,August,59,80.96,68.54,8.94776,320,19.908766,0,0,0
KODIAK AP,AK,57.7511,-152.4856,24.4,January,20.12,37.04,28.4,5.816044,320,12.974252,0,0,0
BETHEL AP,AK,60.785,-161.8292,31.1,January,19.22,31.1,27.32,7.82929,320,14.987498,0,1.181103,0
BARROW POST ROGERS AP,AK,71.2833,-156.7814,9.4,January,-5.8,21.2,10.94,23.040482,320,59.055216,0.1968505,5.118113,0.01968505
JACKSONVILLE CRAIG MUNI AP,FL,30.3361,-81.5147,12.5,January,35.06,68,54.32,16.553356,320,33.106712,0,0,0.14960638
ALABASTER SHELBY CO AP,AL,33.1783,-86.7817,172.2,January,59,64.04,62.42,5.816044,320,29.08022,0,0,2.44882022
ALABASTER SHELBY CO AP,AL,33.1783,-86.7817,172.2,January,32,51.98,41.36,3.579104,320,21.027236,0,0,0
PUEBLO MEM AP,CO,38.29,-104.4983,1438.7,January,-1.84,44.96,15.44,4.47388,320,17.000744,0,3.93701,0
PUEBLO MEM AP,CO,38.29,-104.4983,1438.7,August,57.02,89.96,71.78,7.605596,320,38.02798,0,0,0.01181103
FRESNO YOSEMITE INTL AP,CA,36.78,-119.7194,101.5,January,35.96,55.94,53.78,9.171454,320,23.040482,0,0,0
HAYWARD AIR TERMINAL,CA,37.6542,-122.115,13.1,August,66.02,82.04,73.22,6.263432,320,17.000744,0,0,0
SALISBURY WICOMICO RGNL AP,MD,38.3406,-75.5103,14.6,August,62.96,78.08,72.14,4.921268,320,16.105968,0,0,0.27165369
WASHINGTON DC DULLES AP,VA,38.9408,-77.4636,88.4,January,16.16,24.26,22.1,12.974252,320,29.974996,0.5905515,0,0.0393701
WASHINGTON DC DULLES AP,VA,38.9408,-77.4636,88.4,January,11.12,22.1,17.06,14.763804,320,40.936002,0,0,0
WASHINGTON DC DULLES AP,VA,38.9408,-77.4636,88.4,August,62.06,78.98,75.38,10.289924,320,35.119958,0,0,0
WASHINGTON DC DULLES AP,VA,38.9408,-77.4636,88.4,August,62.96,80.06,71.96,6.934514,320,21.027236,0,0,0
WALLOPS ISLAND FLIGHT FAC,VA,37.9406,-75.4631,11.6,January,6.26,25.16,16.52,4.921268,320,14.092722,0,7.086618,0
LEXINGTON BLUEGRASS AP,KY,38.0408,-84.6058,298.7,January,20.12,25.16,23.54,5.144962,320,14.092722,2.5196864,0,0.1181103
SPRINGFIELD CAPITAL AP,IL,39.8447,-89.6839,181.1,January,10.22,17.24,15.44,8.724066,320,19.01399,0.7086618,1.181103,0.05905515
SPRINGFIELD CAPITAL AP,IL,39.8447,-89.6839,181.1,January,0.14,11.12,7.7,7.605596,320,19.01399,0,0,0
TUPELO RGNL AP,MS,34.2622,-88.7714,110,January,51.08,64.94,61.34,6.039738,320,27.066974,0,0,0
TUPELO RGNL AP,MS,34.2622,-88.7714,110,January,27.14,51.08,45.68,12.526864,320,31.093466,0,0,0
TUPELO RGNL AP,MS,34.2622,-88.7714,110,August,68,91.04,79.34,4.921268,320,16.105968,0,0,0
QUINCY RGNL AP,IL,39.9369,-91.1919,234.4,January,18.14,39.92,36.68,16.105968,320,34.001488,0,0,0.01181103
QUILLAYUTE STATE AP,WA,47.9375,-124.555,56.4,August,48.92,89.96,66.74,5.816044,320,19.01399,0,0,0
BRIDGEPORT SIKORSKY MEM AP,CT,41.1583,-73.1289,1.5,January,14.18,25.16,20.48,10.961006,320,27.066974,0.1968505,5.118113,0
BRIDGEPORT SIKORSKY MEM AP,CT,41.1583,-73.1289,1.5,August,60.08,78.08,70.34,7.381902,320,23.935258,0,0,0
NEW YORK JFK INTL AP,NY,40.6386,-73.7622,3.4,January,26.24,32,29.66,6.263432,320,19.01399,0.5905515,0,0.05118113
NEW YORK JFK INTL AP,NY,40.6386,-73.7622,3.4,August,71.06,84.92,76.64,7.381902,320,36.014734,0,0,0.01181103
HOUGHTON LK ROSCOMMON AP,MI,44.3592,-84.6739,350.8,August,51.98,73.94,64.76,6.71082,320,23.040482,0,0,0.03149608
CHICAGO OHARE INTL AP,IL,41.995,-87.9336,200.6,August,60.98,82.94,72.86,5.144962,320,29.08022,0,0,0
ALPENA CO RGNL AP,MI,45.0717,-83.5644,208.5,January,13.1,22.1,17.6,6.263432,320,19.01399,0.3149608,1.968505,0.01968505
ALPENA CO RGNL AP,MI,45.0717,-83.5644,208.5,August,50,73.04,62.96,7.605596,320,31.988242,0,0,0.01968505
GRAND RAPIDS,MI,42.8939,-85.5447,237.1,August,57.02,68,64.58,14.987498,320,33.106712,0,0,0.18897648
WATERLOO MUNI AP,IA,42.5544,-92.4011,264.6,January,-0.76,8.24,6.08,9.171454,320,21.922012,0,0,0
WATERLOO MUNI AP,IA,42.5544,-92.4011,264.6,January,-4.9,9.14,0.68,5.816044,320,21.027236,0,0,0
WATERLOO MUNI AP,IA,42.5544,-92.4011,264.6,January,2.12,15.26,8.24,6.71082,320,23.040482,0,0,0
WATERLOO MUNI AP,IA,42.5544,-92.4011,264.6,August,50,77,61.52,9.842536,320,27.96175,0,0,0
DENVER INTL AP,CO,39.8328,-104.6575,1650.2,August,51.98,66.92,64.58,9.171454,310,35.119958,0,0,0.18110246
MACON MIDDLE GA RGNL AP,GA,32.6847,-83.6528,104.5,January,37.04,51.98,47.66,6.71082,310,21.027236,0,0,1.01968559
PADUCAH,KY,37.0683,-88.7719,119.5,August,57.02,80.96,75.02,6.71082,310,19.908766,0,0,0
PADUCAH,KY,37.0683,-88.7719,119.5,August,66.92,80.06,72.68,4.697574,310,17.000744,0,0,0.29921276
GREER,SC,34.8831,-82.2203,286.5,January,17.24,32,23.9,5.816044,310,21.922012,0,3.149608,0
JACKSON,KY,37.5908,-83.3131,415.7,August,64.04,86,73.76,1.789552,310,29.08022,0,0,0
JACKSON,KY,37.5908,-83.3131,415.7,August,55.94,75.92,65.66,1.789552,310,12.974252,0,0,0
COLLEGE STN,TX,30.5892,-96.3647,93,January,50,73.94,66.02,8.052984,310,38.02798,0,0,0.5118113
JACKSON INTL AP,MS,32.3206,-90.0778,100.6,August,73.04,89.06,78.98,6.71082,310,34.001488,0,0,1.42913463
COLUMBIA RGNL AP,MO,38.8169,-92.2183,272.2,January,20.12,46.04,41,14.763804,310,29.974996,0,0,0.03149608
COLUMBIA RGNL AP,MO,38.8169,-92.2183,272.2,January,13.1,24.26,19.76,8.94776,310,21.027236,0,0,0
KANSAS CITY INTL AP,MO,39.2972,-94.7306,306.3,January,2.12,15.26,12.38,8.500372,310,21.922012,0.7086618,1.968505,0.0393701
DAYTONA BEACH INTL AP,FL,29.1828,-81.0483,9.4,January,59,75.92,69.98,5.59235,310,16.105968,0,0,0
VERO BEACH INTL AP,FL,27.6531,-80.2428,8.5,January,37.94,64.04,54.68,6.039738,310,23.935258,0,0,0
WEST PALM BEACH INTL AP,FL,26.6847,-80.0994,5.8,January,55.94,78.08,67.64,3.802798,310,18.119214,0,0,0
FT LAUDERDALE HOLLYWOOD AP,FL,26.0719,-80.1536,3.4,January,62.06,78.98,71.42,4.026492,310,19.01399,0,0,0
VICTORIA RGNL AP,TX,28.8614,-96.9303,35.1,January,53.96,80.06,71.78,9.618842,310,27.066974,0,0,0
HOUSTON HOBBY AP,TX,29.6381,-95.2819,13.4,August,75.92,89.06,81.68,5.368656,310,21.027236,0,0,0.64960665
SAN ANTONIO INTL AP,TX,29.5442,-98.4839,240.5,January,48.92,77,65.48,7.605596,310,25.948504,0,0,0.01968505
SAN ANTONIO INTL AP,TX,29.5442,-98.4839,240.5,August,71.06,87.08,80.6,6.263432,310,40.041226,0,0,3.31102541
ELKINS RANDOLPH CO AP,WV,38.8853,-79.8528,603.2,January,13.1,21.2,19.22,4.921268,310,14.987498,1.1023628,5.118113,0.01181103
LYNCHBURG RGNL AP,VA,37.3208,-79.2067,286.5,January,32,53.06,47.12,7.158208,310,25.948504,0,0,0
PHILADELPHIA INTL AP,PA,39.8683,-75.2311,3,January,26.24,32,30.02,9.395148,310,21.027236,0.9842525,1.968505,0.05905515
PHILADELPHIA INTL AP,PA,39.8683,-75.2311,3,January,27.14,39.02,35.42,9.171454,310,36.014734,0.787402,0,0.01968505
PHILADELPHIA INTL AP,PA,39.8683,-75.2311,3,August,66.02,80.06,71.24,7.605596,310,23.040482,0,0,0
WASHINGTON REAGAN AP,VA,38.8483,-77.0342,3,August,71.96,89.96,80.06,5.816044,310,27.066974,0,0,0.05905515
WASHINGTON REAGAN AP,VA,38.8483,-77.0342,3,August,71.06,80.96,78.08,11.408394,310,35.119958,0,0,0
WILMINGTON INTL AP,NC,34.2675,-77.8997,10.1,January,18.14,30.2,24.26,12.526864,310,27.96175,0,0,0
HATTIESBURG CHAIN MUNI AP,MS,31.2819,-89.2531,46,August,73.94,91.04,80.24,4.697574,310,25.948504,0,0,0.5905515
CHARLESTON YEAGER AP,WV,38.3794,-81.59,277.4,January,27.14,53.96,45.68,11.855782,310,38.02798,0,0,0.09055123
ATHENS BEN EPPS AP,GA,33.9481,-83.3275,239.3,January,39.92,57.02,53.78,8.052984,310,23.040482,0,0,0
ATHENS BEN EPPS AP,GA,33.9481,-83.3275,239.3,January,37.04,48.02,42.62,5.144962,310,18.119214,0,0,0.53937037
BIRMINGHAM AP,AL,33.5656,-86.745,187.5,August,71.96,93.02,78.26,3.579104,310,27.066974,0,0,0
CHARLESTON INTL AP,SC,32.8986,-80.0403,12.2,January,53.96,66.92,62.06,8.724066,310,21.922012,0,0,0
CHARLESTON INTL AP,SC,32.8986,-80.0403,12.2,January,37.04,55.94,47.12,10.513618,310,29.974996,0,0,0
KNOXVILLE MCGHEE TYSON AP,TN,35.8181,-83.9858,293.2,August,68,86,75.92,8.052984,310,23.935258,0,0,0.29921276
MOBILE,AL,30.6794,-88.2397,63.4,January,53.96,71.96,64.22,4.250186,310,17.000744,0,0,0
NASHVILLE INTL AP,TN,36.1189,-86.6892,182.9,January,42.98,66.02,60.44,7.82929,310,25.948504,0,0,0.22047256
AUSTIN BERGSTROM AP,TX,30.1831,-97.68,146.3,January,53.06,77,62.96,5.59235,310,29.08022,0,0,0.46063017
SHREVEPORT,LA,32.4506,-93.8411,83.2,January,37.94,50,46.4,8.276678,310,21.027236,0,0,0
FT SMITH RGNL AP,AR,35.3331,-94.3625,136.9,January,33.08,53.06,47.84,8.052984,310,29.974996,0,0,0
DODGE CITY,KS,37.7608,-99.9683,789.4,January,30.2,71.96,46.58,9.395148,310,21.027236,0,0,0
ST LOUIS LAMBERT INTL AP,MO,38.7525,-90.3736,161.8,January,17.24,28.22,24.44,10.513618,310,27.96175,0,0,0
BANGOR INTL AP,ME,44.7978,-68.8186,45.1,January,4.1,26.24,22.46,5.368656,310,16.105968,0,7.9921303,0
BANGOR INTL AP,ME,44.7978,-68.8186,45.1,January,9.14,24.26,16.88,3.579104,310,19.01399,0,0,0
BANGOR INTL AP,ME,44.7978,-68.8186,45.1,August,55.94,73.04,68,7.605596,310,31.988242,0,0,0
MIDDLETOWN HARRISBURG INTL AP,PA,40.1936,-76.7633,95.1,January,14.18,24.26,19.4,16.553356,310,36.014734,0,0,0
MIDDLETOWN HARRISBURG INTL AP,PA,40.1936,-76.7633,95.1,January,24.26,35.96,31.28,8.276678,310,33.106712,0,0,0.03149608
MIDDLETOWN HARRISBURG INTL AP,PA,40.1936,-76.7633,95.1,August,68,86,76.82,6.934514,310,29.974996,0,0,1.59842606
NEW YORK LAGUARDIA AP,NY,40.7794,-73.8803,3.4,January,19.22,27.14,22.64,18.790296,310,38.02798,0,7.086618,0
NEW YORK LAGUARDIA AP,NY,40.7794,-73.8803,3.4,January,32,37.94,37.04,12.526864,310,25.948504,0,0,0
ALLENTOWN INTL AP,PA,40.6508,-75.4492,118.9,January,19.22,25.16,22.64,8.500372,310,25.053728,0.1968505,0,0.01181103
HARTFORD BRADLEY INTL AP,CT,41.9381,-72.6825,57.9,August,62.06,89.06,76.28,3.131716,310,14.092722,0,0,0
ROCHESTER GTR INTL AP,NY,43.1167,-77.6767,162.5,August,57.02,75.92,66.38,8.052984,310,21.922012,0,0,0
WILLIAMSPORT,PA,41.2433,-76.9217,158.5,January,11.12,23.18,17.6,12.974252,310,34.001488,0.1181103,0,0
CLEVELAND,OH,41.4131,-81.86,232.6,January,12.2,19.22,14.36,12.526864,310,29.08022,0.787402,1.968505,0.01968505
FLINT BISHOP INTL AP,MI,42.9667,-83.7494,234.7,August,48.92,80.96,65.12,6.039738,310,23.040482,0,0,0
MADISON DANE RGNL AP,WI,43.1406,-89.3453,264,January,10.22,33.98,33.26,9.618842,310,31.093466,0,1.968505,0.03149608
MADISON DANE RGNL AP,WI,43.1406,-89.3453,264,January,-1.84,7.16,3.2,8.276678,310,23.040482,0.1181103,1.968505,0
MADISON DANE RGNL AP,WI,43.1406,-89.3453,264,January,31.1,37.04,32,7.381902,310,23.935258,0.7086618,5.118113,0.05118113
MILWAUKEE MITCHELL AP,WI,42.955,-87.9044,204.2,August,55.94,68,63.14,13.197946,310,36.014734,0,0,0
MUSKEGON CO AP,MI,43.1711,-86.2367,190.5,January,15.26,30.2,22.46,18.119214,310,36.90951,1.181103,0,0.0393701
PEORIA GTR PEORIA AP,IL,40.6675,-89.6839,198.1,January,17.24,39.92,37.58,9.618842,310,29.974996,0,0,0.09842525
PEORIA GTR PEORIA AP,IL,40.6675,-89.6839,198.1,August,53.96,75.02,64.22,7.82929,310,29.974996,0,0,0
SAULT STE MARIE SANDERSON FLD,MI,46.4794,-84.3572,220.1,August,64.04,84.92,73.22,5.144962,310,27.96175,0,0,0.01968505
SAULT STE MARIE SANDERSON FLD,MI,46.4794,-84.3572,220.1,August,51.08,73.94,62.24,4.921268,310,16.105968,0,0,0
MANSFIELD LAHM MUNI AP,OH,40.8203,-82.5178,394.7,August,62.06,84.92,73.76,3.802798,310,14.092722,0,0,0
AKRON CANTON RGNL AP,OH,40.9167,-81.4333,368.2,January,23.18,42.08,34.16,5.816044,310,19.01399,0,0,0
AKRON CANTON RGNL AP,OH,40.9167,-81.4333,368.2,January,6.26,16.16,10.4,10.513618,310,27.96175,0,1.968505,0
DULUTH,MN,46.8369,-92.2097,435.3,January,11.12,25.16,20.84,9.842536,310,21.922012,0.1181103,7.87402,0
DULUTH,MN,46.8369,-92.2097,435.3,January,-12.82,-2.74,-5.44,16.105968,310,33.106712,0,9.055123,0
DULUTH,MN,46.8369,-92.2097,435.3,January,-18.76,2.12,-9.04,8.500372,310,21.922012,0,9.055123,0
DULUTH,MN,46.8369,-92.2097,435.3,January,19.22,31.1,23.54,11.632088,310,29.08022,0.5118113,11.81103,0.03149608
DULUTH,MN,46.8369,-92.2097,435.3,August,60.98,82.04,73.04,9.395148,310,21.922012,0,0,0
DULUTH,MN,46.8369,-92.2097,435.3,August,50,73.04,57.56,8.500372,310,31.988242,0,0,0.16141741
FARGO HECTOR INTL AP,ND,46.9253,-96.8111,274.3,January,-7.78,13.1,8.6,18.342908,310,35.119958,0,9.842525,0
FARGO HECTOR INTL AP,ND,46.9253,-96.8111,274.3,January,-15.88,-0.76,-7.6,7.158208,310,18.119214,0,9.842525,0
GRAND FORKS INTL AP,ND,47.9428,-97.1839,256.6,January,16.16,23.18,20.48,8.500372,310,25.948504,0,7.086618,0
GRAND FORKS INTL AP,ND,47.9428,-97.1839,256.6,August,48.02,80.96,65.48,4.921268,310,16.105968,0,0,0
INTL FALLS INTL AP,MN,48.5614,-93.3981,360.6,January,10.22,27.14,23.72,10.961006,310,31.093466,0,11.81103,0
LA CROSSE MUNI AP,WI,43.8789,-91.2528,198.7,January,-2.74,13.1,4.82,6.71082,310,21.922012,0,3.149608,0
LA CROSSE MUNI AP,WI,43.8789,-91.2528,198.7,August,55.94,77,70.52,12.750558,310,33.106712,0,0,0.18897648
LA CROSSE MUNI AP,WI,43.8789,-91.2528,198.7,August,55.94,78.08,64.04,13.645334,310,34.001488,0,0,0.05905515
MINNEAPOLIS/ST PAUL AP,MN,44.8831,-93.2289,265.8,January,-7.78,2.12,-1.3,10.289924,310,21.027236,0,1.181103,0
MINNEAPOLIS/ST PAUL AP,MN,44.8831,-93.2289,265.8,January,-1.84,9.14,3.02,8.500372,310,21.027236,0,1.181103,0
ROCHESTER INTL AP,MN,43.9042,-92.4917,397.5,January,-8.86,-0.76,-2.2,12.079476,310,19.908766,0,3.149608,0
ST CLOUD RGNL AP,MN,45.5433,-94.0514,310.3,January,-11.74,5.18,-3.64,6.71082,310,19.908766,0,1.968505,0
ST CLOUD RGNL AP,MN,45.5433,-94.0514,310.3,January,15.26,41,25.52,11.408394,310,33.106712,0.787402,0,0.07086618
ST CLOUD RGNL AP,MN,45.5433,-94.0514,310.3,January,29.12,37.04,33.98,14.316416,310,31.988242,0,0,0.01181103
ST CLOUD RGNL AP,MN,45.5433,-94.0514,310.3,August,51.08,80.06,65.48,2.908022,310,14.987498,0,0,0
ABERDEEN,SD,45.4558,-98.4131,396.8,January,7.16,23.18,21.56,12.079476,310,21.027236,2.2047256,1.181103,0.16141741
ABERDEEN,SD,45.4558,-98.4131,396.8,January,-11.74,9.14,-1.66,4.250186,310,12.079476,0.3149608,3.149608,0.03149608
ABERDEEN,SD,45.4558,-98.4131,396.8,January,-18.76,3.2,-6.52,4.921268,310,10.961006,0,3.149608,0
ABERDEEN,SD,45.4558,-98.4131,396.8,January,24.26,41,32,19.685072,310,55.9235,0,1.968505,0
ABERDEEN,SD,45.4558,-98.4131,396.8,January,21.2,33.98,32.18,17.224438,310,31.093466,0,1.181103,0
DES MOINES INTL AP,IA,41.5339,-93.6531,291.7,January,5.18,15.26,10.58,12.974252,310,29.974996,0.1181103,0,0
DES MOINES INTL AP,IA,41.5339,-93.6531,291.7,January,-2.74,16.16,5.36,8.052984,310,19.908766,0,0,0
DES MOINES INTL AP,IA,41.5339,-93.6531,291.7,January,35.96,44.06,40.1,14.763804,310,36.90951,0,0,0
GRAND ISLAND AP,NE,40.9611,-98.3136,560.8,January,-7.78,11.12,6.44,10.961006,310,29.08022,0,1.181103,0
GRAND ISLAND AP,NE,40.9611,-98.3136,560.8,August,53.96,75.92,69.08,12.750558,310,33.106712,0,0,0
HURON RGNL AP,SD,44.3981,-98.2231,390.1,August,59,86,74.66,5.816044,310,21.027236,0,0,0
LINCOLN MUNI AP,NE,40.8508,-96.7475,362.7,January,26.24,60.98,38.84,8.94776,310,35.119958,0,0,0
NORFOLK KARL STEFAN AP,NE,41.9856,-97.4353,472.7,January,18.14,33.98,31.82,10.289924,310,36.90951,0,0,0.01181103
SIOUX CITY GATEWAY AP,IA,42.3914,-96.3792,333.8,January,11.12,33.08,17.78,11.1847,310,25.053728,0,0,0
SIOUX FALLS,SD,43.5878,-96.7289,435.9,January,-1.84,21.2,14.72,19.908766,310,38.02798,0,0,0
SIOUX FALLS,SD,43.5878,-96.7289,435.9,January,-5.8,6.26,-0.76,12.079476,310,25.053728,0,0,0
SIOUX FALLS,SD,43.5878,-96.7289,435.9,August,57.02,71.06,65.3,8.052984,310,21.922012,0,0,0
SAN ANGELO,TX,31.3711,-100.4922,576.1,January,41,75.92,56.12,6.71082,310,44.067718,0,0,0.01968505
AMARILLO,TX,35.2333,-101.7089,1093.3,August,62.06,87.98,73.22,8.500372,310,31.093466,0,0,0.29921276
ALBUQUERQUE INTL AP,NM,35.0419,-106.6156,1618.5,August,64.94,86,74.84,8.052984,310,38.922756,0,0,0.0787402
CLAYTON MUNI AIR PK,NM,36.4486,-103.1539,1511.8,January,33.98,68,48.38,9.395148,310,21.027236,0,0,0
ALAMOSA SAN LUIS AP,CO,37.4389,-105.8614,2296.1,January,19.22,27.14,21.74,2.908022,310,10.961006,0,5.118113,0
ALAMOSA SAN LUIS AP,CO,37.4389,-105.8614,2296.1,January,-7.78,32,8.78,2.684328,310,12.974252,0,3.149608,0
ALAMOSA SAN LUIS AP,CO,37.4389,-105.8614,2296.1,August,44.06,75.92,59.36,6.934514,310,27.96175,0,0,0.0393701
LONG BEACH DAUGHERTY FLD,CA,33.8117,-118.1464,9.4,January,53.06,69.98,57.38,2.23694,310,10.06623,0,0,0
TUCSON INTL AP,AZ,32.1314,-110.9553,776.9,January,51.08,78.08,62.78,6.934514,310,18.119214,0,0,0
TUCSON INTL AP,AZ,32.1314,-110.9553,776.9,August,73.04,102.92,79.52,5.816044,310,18.119214,0,0,0
RENO TAHOE INTL AP,NV,39.4839,-119.7711,1344.2,January,25.16,53.06,35.24,2.013246,310,10.961006,0,0,0
SAN DIEGO LINDBERGH FLD,CA,32.7336,-117.1831,4.6,January,51.98,71.06,58.46,2.23694,310,12.079476,0,0,0
STOCKTON METRO AP,CA,37.8892,-121.2258,7.9,August,60.08,93.02,74.84,6.71082,310,19.01399,0,0,0
SANTA MARIA PUBLIC AP,CA,34.8994,-120.4486,73.8,August,59,87.08,66.92,4.47388,310,21.922012,0,0,0
SANTA MARIA PUBLIC AP,CA,34.8994,-120.4486,73.8,August,55.94,71.96,62.42,7.381902,310,23.040482,0,0,0
SANTA MARIA PUBLIC AP,CA,34.8994,-120.4486,73.8,August,55.94,71.06,61.7,8.500372,310,21.027236,0,0,0
BISMARCK,ND,46.7708,-100.7603,505.4,January,-19.84,6.26,-8.14,9.842536,310,34.001488,0,18.110246,0
NORTH PLATTE RGNL AP,NE,41.1214,-100.6694,846.7,August,57.02,84.92,68.72,4.697574,310,23.935258,0,0,0
PIERRE RGNL AP,SD,44.3814,-100.2856,531,January,30.2,42.98,37.22,19.908766,310,46.080964,0,9.055123,0
PIERRE RGNL AP,SD,44.3814,-100.2856,531,August,62.06,86,73.94,8.500372,310,35.119958,0,0,0.11023628
SCOTTSBLUFF HEILIG AP,NE,41.8706,-103.5931,1202.4,January,8.24,14.18,10.58,7.158208,310,18.119214,2.4015761,0,0.16141741
SCOTTSBLUFF HEILIG AP,NE,41.8706,-103.5931,1202.4,January,-13.9,7.16,2.66,8.724066,310,19.908766,0,7.086618,0
VALENTINE MILLER FLD,NE,42.8783,-100.55,789.4,January,24.26,48.02,37.76,11.1847,310,29.08022,0,3.149608,0
RAPID CITY RGNL AP,SD,44.0433,-103.0536,963.2,January,29.12,55.04,44.78,18.790296,310,48.09421,0,0,0
SALT LAKE CITY INTL AP,UT,40.7781,-111.9694,1287.8,January,3.2,23.18,19.94,7.605596,310,19.908766,1.4960638,9.842525,0.09842525
WINNEMUCCA MUNI AP,NV,40.9017,-117.8081,1309.4,August,60.98,104,83.12,5.144962,310,23.935258,0,0,0
BOISE AIR TERMINAL,ID,43.5667,-116.2406,857.7,August,64.94,98.06,82.58,6.934514,310,21.922012,0,0,0
